linear:
  x: 0.168421052631579
  y: 0.0
  z: 0.0
angular:
  x: 0.0
  y: 0.0
  z: 0.4736842105263157
---
linear:
  x: 0.168421052631579
  y: 0.0
  z: 0.0
angular:
  x: 0.0
  y: 0.0
  z: 0.4736842105263157
---
linear:
  x: 0.168421052631579
  y: 0.0
  z: 0.0
angular:
  x: 0.0
  y: 0.0
  z: 0.4736842105263157
---
linear:
  x: 0.168421052631579
  y: 0.0
  z: 0.0
angular:
  x: 0.0
  y: 0.0
  z: 0.4736842105263157
---
linear:
  x: 0.168421052631579
  y: 0.0
  z: 0.0
angular:
  x: 0.0
  y: 0.0
  z: 0.4736842105263157
---
linear:
  x: 0.168421052631579
  y: 0.0
  z: 0.0
angular:
  x: 0.0
  y: 0.0
  z: 0.4736842105263157
---
linear:
  x: 0.168421052631579
  y: 0.0
  z: 0.0
angular:
  x: 0.0
  y: 0.0
  z: 0.4736842105263157
---
linear:
  x: 0.20000000000000007
  y: 0.0
  z: 0.0
angular:
  x: 0.0
  y: 0.0
  z: 0.36842105263157887
---
linear:
  x: 0.18947368421052638
  y: 0.0
  z: 0.0
angular:
  x: 0.0
  y: 0.0
  z: 0.36842105263157887
---
linear:
  x: 0.1789473684210527
  y: 0.0
  z: 0.0
angular:
  x: 0.0
  y: 0.0
  z: 0.26315789473684204
---
linear:
  x: 0.168421052631579
  y: 0.0
  z: 0.0
angular:
  x: 0.0
  y: 0.0
  z: 0.26315789473684204
---
linear:
  x: 0.168421052631579
  y: 0.0
  z: 0.0
angular:
  x: 0.0
  y: 0.0
  z: 0.26315789473684204
---
linear:
  x: 0.20000000000000007
  y: 0.0
  z: 0.0
angular:
  x: 0.0
  y: 0.0
  z: 0.4736842105263157
---
linear:
  x: 0.20000000000000007
  y: 0.0
  z: 0.0
angular:
  x: 0.0
  y: 0.0
  z: 0.4736842105263157
---
linear:
  x: 0.20000000000000007
  y: 0.0
  z: 0.0
angular:
  x: 0.0
  y: 0.0
  z: 0.4736842105263157
---
linear:
  x: 0.1789473684210527
  y: 0.0
  z: 0.0
angular:
  x: 0.0
  y: 0.0
  z: 0.4736842105263157
---
linear:
  x: 0.1789473684210527
  y: 0.0
  z: 0.0
angular:
  x: 0.0
  y: 0.0
  z: 0.36842105263157887
---
linear:
  x: 0.1789473684210527
  y: 0.0
  z: 0.0
angular:
  x: 0.0
  y: 0.0
  z: 0.36842105263157887
---
linear:
  x: 0.18947368421052638
  y: 0.0
  z: 0.0
angular:
  x: 0.0
  y: 0.0
  z: 0.1578947368421052
---
linear:
  x: 0.20000000000000007
  y: 0.0
  z: 0.0
angular:
  x: 0.0
  y: 0.0
  z: 0.0
---
linear:
  x: 0.18947368421052638
  y: 0.0
  z: 0.0
angular:
  x: 0.0
  y: 0.0
  z: -0.052631578947368474
---
linear:
  x: 0.1578947368421053
  y: 0.0
  z: 0.0
angular:
  x: 0.0
  y: 0.0
  z: -0.052631578947368474
---
linear:
  x: 0.1578947368421053
  y: 0.0
  z: 0.0
angular:
  x: 0.0
  y: 0.0
  z: -0.052631578947368474
---
linear:
  x: 0.1578947368421053
  y: 0.0
  z: 0.0
angular:
  x: 0.0
  y: 0.0
  z: -0.052631578947368474
---
linear:
  x: 0.18947368421052638
  y: 0.0
  z: 0.0
angular:
  x: 0.0
  y: 0.0
  z: -0.052631578947368474
---
linear:
  x: 0.1789473684210527
  y: 0.0
  z: 0.0
angular:
  x: 0.0
  y: 0.0
  z: -0.052631578947368474
---
linear:
  x: 0.14736842105263162
  y: 0.0
  z: 0.0
angular:
  x: 0.0
  y: 0.0
  z: -0.052631578947368474
---
linear:
  x: 0.18947368421052638
  y: 0.0
  z: 0.0
angular:
  x: 0.0
  y: 0.0
  z: -0.052631578947368474
---
linear:
  x: 0.18947368421052638
  y: 0.0
  z: 0.0
angular:
  x: 0.0
  y: 0.0
  z: -0.052631578947368474
---
linear:
  x: 0.1578947368421053
  y: 0.0
  z: 0.0
angular:
  x: 0.0
  y: 0.0
  z: -0.052631578947368474
---
linear:
  x: 0.20000000000000007
  y: 0.0
  z: 0.0
angular:
  x: 0.0
  y: 0.0
  z: -0.052631578947368474
---
linear:
  x: 0.18947368421052638
  y: 0.0
  z: 0.0
angular:
  x: 0.0
  y: 0.0
  z: -0.052631578947368474
---
linear:
  x: 0.1578947368421053
  y: 0.0
  z: 0.0
angular:
  x: 0.0
  y: 0.0
  z: -0.052631578947368474
---
linear:
  x: 0.20000000000000007
  y: 0.0
  z: 0.0
angular:
  x: 0.0
  y: 0.0
  z: -0.1578947368421053
---
linear:
  x: 0.18947368421052638
  y: 0.0
  z: 0.0
angular:
  x: 0.0
  y: 0.0
  z: -0.052631578947368474
---
linear:
  x: 0.1578947368421053
  y: 0.0
  z: 0.0
angular:
  x: 0.0
  y: 0.0
  z: -0.052631578947368474
---
linear:
  x: 0.1578947368421053
  y: 0.0
  z: 0.0
angular:
  x: 0.0
  y: 0.0
  z: -0.052631578947368474
---
linear:
  x: 0.13684210526315793
  y: 0.0
  z: 0.0
angular:
  x: 0.0
  y: 0.0
  z: -0.052631578947368474
---
linear:
  x: 0.1789473684210527
  y: 0.0
  z: 0.0
angular:
  x: 0.0
  y: 0.0
  z: -0.1578947368421053
---
linear:
  x: 0.1789473684210527
  y: 0.0
  z: 0.0
angular:
  x: 0.0
  y: 0.0
  z: -0.1578947368421053
---
linear:
  x: 0.1578947368421053
  y: 0.0
  z: 0.0
angular:
  x: 0.0
  y: 0.0
  z: -0.1578947368421053
---
linear:
  x: 0.1578947368421053
  y: 0.0
  z: 0.0
angular:
  x: 0.0
  y: 0.0
  z: -0.1578947368421053
---
linear:
  x: 0.18947368421052638
  y: 0.0
  z: 0.0
angular:
  x: 0.0
  y: 0.0
  z: -0.052631578947368474
---
linear:
  x: 0.18947368421052638
  y: 0.0
  z: 0.0
angular:
  x: 0.0
  y: 0.0
  z: -0.052631578947368474
---
linear:
  x: 0.168421052631579
  y: 0.0
  z: 0.0
angular:
  x: 0.0
  y: 0.0
  z: -0.052631578947368474
---
linear:
  x: 0.168421052631579
  y: 0.0
  z: 0.0
angular:
  x: 0.0
  y: 0.0
  z: -0.052631578947368474
---
linear:
  x: 0.14736842105263162
  y: 0.0
  z: 0.0
angular:
  x: 0.0
  y: 0.0
  z: -0.052631578947368474
---
linear:
  x: 0.168421052631579
  y: 0.0
  z: 0.0
angular:
  x: 0.0
  y: 0.0
  z: -0.052631578947368474
---
linear:
  x: 0.168421052631579
  y: 0.0
  z: 0.0
angular:
  x: 0.0
  y: 0.0
  z: -0.052631578947368474
---
linear:
  x: 0.18947368421052638
  y: 0.0
  z: 0.0
angular:
  x: 0.0
  y: 0.0
  z: -0.1578947368421053
---
linear:
  x: 0.168421052631579
  y: 0.0
  z: 0.0
angular:
  x: 0.0
  y: 0.0
  z: -0.1578947368421053
---
linear:
  x: 0.14736842105263162
  y: 0.0
  z: 0.0
angular:
  x: 0.0
  y: 0.0
  z: -0.1578947368421053
---
linear:
  x: 0.20000000000000007
  y: 0.0
  z: 0.0
angular:
  x: 0.0
  y: 0.0
  z: -0.1578947368421053
---
linear:
  x: 0.168421052631579
  y: 0.0
  z: 0.0
angular:
  x: 0.0
  y: 0.0
  z: -0.1578947368421053
---
linear:
  x: 0.168421052631579
  y: 0.0
  z: 0.0
angular:
  x: 0.0
  y: 0.0
  z: -0.1578947368421053
---
linear:
  x: 0.14736842105263162
  y: 0.0
  z: 0.0
angular:
  x: 0.0
  y: 0.0
  z: -0.1578947368421053
---
linear:
  x: 0.20000000000000007
  y: 0.0
  z: 0.0
angular:
  x: 0.0
  y: 0.0
  z: -0.052631578947368474
---
linear:
  x: 0.168421052631579
  y: 0.0
  z: 0.0
angular:
  x: 0.0
  y: 0.0
  z: -0.052631578947368474
---
linear:
  x: 0.14736842105263162
  y: 0.0
  z: 0.0
angular:
  x: 0.0
  y: 0.0
  z: -0.052631578947368474
---
linear:
  x: 0.20000000000000007
  y: 0.0
  z: 0.0
angular:
  x: 0.0
  y: 0.0
  z: -0.052631578947368474
---
linear:
  x: 0.168421052631579
  y: 0.0
  z: 0.0
angular:
  x: 0.0
  y: 0.0
  z: -0.052631578947368474
---
linear:
  x: 0.14736842105263162
  y: 0.0
  z: 0.0
angular:
  x: 0.0
  y: 0.0
  z: -0.052631578947368474
---
linear:
  x: 0.168421052631579
  y: 0.0
  z: 0.0
angular:
  x: 0.0
  y: 0.0
  z: -0.052631578947368474
---
linear:
  x: 0.168421052631579
  y: 0.0
  z: 0.0
angular:
  x: 0.0
  y: 0.0
  z: -0.052631578947368474
---
linear:
  x: 0.168421052631579
  y: 0.0
  z: 0.0
angular:
  x: 0.0
  y: 0.0
  z: -0.052631578947368474
---
linear:
  x: 0.14736842105263162
  y: 0.0
  z: 0.0
angular:
  x: 0.0
  y: 0.0
  z: -0.052631578947368474
---
linear:
  x: 0.14736842105263162
  y: 0.0
  z: 0.0
angular:
  x: 0.0
  y: 0.0
  z: -0.052631578947368474
---
linear:
  x: 0.18947368421052638
  y: 0.0
  z: 0.0
angular:
  x: 0.0
  y: 0.0
  z: 0.0
---
linear:
  x: 0.1789473684210527
  y: 0.0
  z: 0.0
angular:
  x: 0.0
  y: 0.0
  z: 0.0
---
linear:
  x: 0.168421052631579
  y: 0.0
  z: 0.0
angular:
  x: 0.0
  y: 0.0
  z: -0.052631578947368474
---
linear:
  x: 0.14736842105263162
  y: 0.0
  z: 0.0
angular:
  x: 0.0
  y: 0.0
  z: -0.052631578947368474
---
linear:
  x: 0.18947368421052638
  y: 0.0
  z: 0.0
angular:
  x: 0.0
  y: 0.0
  z: -0.052631578947368474
---
linear:
  x: 0.168421052631579
  y: 0.0
  z: 0.0
angular:
  x: 0.0
  y: 0.0
  z: -0.052631578947368474
---
linear:
  x: 0.168421052631579
  y: 0.0
  z: 0.0
angular:
  x: 0.0
  y: 0.0
  z: -0.052631578947368474
---
linear:
  x: 0.14736842105263162
  y: 0.0
  z: 0.0
angular:
  x: 0.0
  y: 0.0
  z: -0.052631578947368474
---
linear:
  x: 0.20000000000000007
  y: 0.0
  z: 0.0
angular:
  x: 0.0
  y: 0.0
  z: -0.1578947368421053
---
linear:
  x: 0.1789473684210527
  y: 0.0
  z: 0.0
angular:
  x: 0.0
  y: 0.0
  z: -0.1578947368421053
---
linear:
  x: 0.1578947368421053
  y: 0.0
  z: 0.0
angular:
  x: 0.0
  y: 0.0
  z: -0.1578947368421053
---
linear:
  x: 0.1789473684210527
  y: 0.0
  z: 0.0
angular:
  x: 0.0
  y: 0.0
  z: -0.1578947368421053
---
linear:
  x: 0.14736842105263162
  y: 0.0
  z: 0.0
angular:
  x: 0.0
  y: 0.0
  z: -0.1578947368421053
---
linear:
  x: 0.18947368421052638
  y: 0.0
  z: 0.0
angular:
  x: 0.0
  y: 0.0
  z: -0.052631578947368474
---
linear:
  x: 0.18947368421052638
  y: 0.0
  z: 0.0
angular:
  x: 0.0
  y: 0.0
  z: -0.052631578947368474
---
linear:
  x: 0.1578947368421053
  y: 0.0
  z: 0.0
angular:
  x: 0.0
  y: 0.0
  z: -0.052631578947368474
---
linear:
  x: 0.1578947368421053
  y: 0.0
  z: 0.0
angular:
  x: 0.0
  y: 0.0
  z: -0.052631578947368474
---
linear:
  x: 0.13684210526315793
  y: 0.0
  z: 0.0
angular:
  x: 0.0
  y: 0.0
  z: -0.052631578947368474
---
linear:
  x: 0.13684210526315793
  y: 0.0
  z: 0.0
angular:
  x: 0.0
  y: 0.0
  z: -0.052631578947368474
---
linear:
  x: 0.18947368421052638
  y: 0.0
  z: 0.0
angular:
  x: 0.0
  y: 0.0
  z: -0.052631578947368474
---
linear:
  x: 0.18947368421052638
  y: 0.0
  z: 0.0
angular:
  x: 0.0
  y: 0.0
  z: -0.052631578947368474
---
linear:
  x: 0.1578947368421053
  y: 0.0
  z: 0.0
angular:
  x: 0.0
  y: 0.0
  z: -0.052631578947368474
---
linear:
  x: 0.14736842105263162
  y: 0.0
  z: 0.0
angular:
  x: 0.0
  y: 0.0
  z: -0.052631578947368474
---
linear:
  x: 0.18947368421052638
  y: 0.0
  z: 0.0
angular:
  x: 0.0
  y: 0.0
  z: 0.0
---
linear:
  x: 0.168421052631579
  y: 0.0
  z: 0.0
angular:
  x: 0.0
  y: 0.0
  z: 0.0
---
linear:
  x: 0.168421052631579
  y: 0.0
  z: 0.0
angular:
  x: 0.0
  y: 0.0
  z: 0.0
---
linear:
  x: 0.14736842105263162
  y: 0.0
  z: 0.0
angular:
  x: 0.0
  y: 0.0
  z: -0.052631578947368474
---
linear:
  x: 0.18947368421052638
  y: 0.0
  z: 0.0
angular:
  x: 0.0
  y: 0.0
  z: -0.052631578947368474
---
linear:
  x: 0.168421052631579
  y: 0.0
  z: 0.0
angular:
  x: 0.0
  y: 0.0
  z: -0.052631578947368474
---
linear:
  x: 0.14736842105263162
  y: 0.0
  z: 0.0
angular:
  x: 0.0
  y: 0.0
  z: -0.052631578947368474
---
linear:
  x: 0.1578947368421053
  y: 0.0
  z: 0.0
angular:
  x: 0.0
  y: 0.0
  z: -0.052631578947368474
---
linear:
  x: 0.14736842105263162
  y: 0.0
  z: 0.0
angular:
  x: 0.0
  y: 0.0
  z: -0.052631578947368474
---
linear:
  x: 0.18947368421052638
  y: 0.0
  z: 0.0
angular:
  x: 0.0
  y: 0.0
  z: -0.052631578947368474
---
linear:
  x: 0.18947368421052638
  y: 0.0
  z: 0.0
angular:
  x: 0.0
  y: 0.0
  z: -0.052631578947368474
---
linear:
  x: 0.18947368421052638
  y: 0.0
  z: 0.0
angular:
  x: 0.0
  y: 0.0
  z: -0.052631578947368474
---
linear:
  x: 0.18947368421052638
  y: 0.0
  z: 0.0
angular:
  x: 0.0
  y: 0.0
  z: -0.052631578947368474
---
linear:
  x: 0.1789473684210527
  y: 0.0
  z: 0.0
angular:
  x: 0.0
  y: 0.0
  z: -0.1578947368421053
---
linear:
  x: 0.1578947368421053
  y: 0.0
  z: 0.0
angular:
  x: 0.0
  y: 0.0
  z: -0.1578947368421053
---
linear:
  x: 0.1578947368421053
  y: 0.0
  z: 0.0
angular:
  x: 0.0
  y: 0.0
  z: -0.1578947368421053
---
linear:
  x: 0.1578947368421053
  y: 0.0
  z: 0.0
angular:
  x: 0.0
  y: 0.0
  z: -0.1578947368421053
---
linear:
  x: 0.1789473684210527
  y: 0.0
  z: 0.0
angular:
  x: 0.0
  y: 0.0
  z: -0.1578947368421053
---
linear:
  x: 0.1789473684210527
  y: 0.0
  z: 0.0
angular:
  x: 0.0
  y: 0.0
  z: -0.1578947368421053
---
linear:
  x: 0.1578947368421053
  y: 0.0
  z: 0.0
angular:
  x: 0.0
  y: 0.0
  z: -0.1578947368421053
---
linear:
  x: 0.20000000000000007
  y: 0.0
  z: 0.0
angular:
  x: 0.0
  y: 0.0
  z: -0.1578947368421053
---
linear:
  x: 0.20000000000000007
  y: 0.0
  z: 0.0
angular:
  x: 0.0
  y: 0.0
  z: -0.1578947368421053
---
linear:
  x: 0.1789473684210527
  y: 0.0
  z: 0.0
angular:
  x: 0.0
  y: 0.0
  z: -0.1578947368421053
---
linear:
  x: 0.1789473684210527
  y: 0.0
  z: 0.0
angular:
  x: 0.0
  y: 0.0
  z: -0.1578947368421053
---
linear:
  x: 0.1789473684210527
  y: 0.0
  z: 0.0
angular:
  x: 0.0
  y: 0.0
  z: 0.0
---
linear:
  x: 0.1578947368421053
  y: 0.0
  z: 0.0
angular:
  x: 0.0
  y: 0.0
  z: 0.05263157894736836
---
linear:
  x: 0.1578947368421053
  y: 0.0
  z: 0.0
angular:
  x: 0.0
  y: 0.0
  z: 0.05263157894736836
---
linear:
  x: 0.13684210526315793
  y: 0.0
  z: 0.0
angular:
  x: 0.0
  y: 0.0
  z: 0.05263157894736836
---
linear:
  x: 0.13684210526315793
  y: 0.0
  z: 0.0
angular:
  x: 0.0
  y: 0.0
  z: 0.05263157894736836
---
linear:
  x: 0.1789473684210527
  y: 0.0
  z: 0.0
angular:
  x: 0.0
  y: 0.0
  z: 0.05263157894736836
---
linear:
  x: 0.14736842105263162
  y: 0.0
  z: 0.0
angular:
  x: 0.0
  y: 0.0
  z: 0.1578947368421052
---
linear:
  x: 0.14736842105263162
  y: 0.0
  z: 0.0
angular:
  x: 0.0
  y: 0.0
  z: 0.1578947368421052
---
linear:
  x: 0.18947368421052638
  y: 0.0
  z: 0.0
angular:
  x: 0.0
  y: 0.0
  z: 0.1578947368421052
---
linear:
  x: 0.18947368421052638
  y: 0.0
  z: 0.0
angular:
  x: 0.0
  y: 0.0
  z: 0.1578947368421052
---
linear:
  x: 0.18947368421052638
  y: 0.0
  z: 0.0
angular:
  x: 0.0
  y: 0.0
  z: 0.1578947368421052
---
linear:
  x: 0.168421052631579
  y: 0.0
  z: 0.0
angular:
  x: 0.0
  y: 0.0
  z: 0.1578947368421052
---
linear:
  x: 0.14736842105263162
  y: 0.0
  z: 0.0
angular:
  x: 0.0
  y: 0.0
  z: 0.1578947368421052
---
linear:
  x: 0.14736842105263162
  y: 0.0
  z: 0.0
angular:
  x: 0.0
  y: 0.0
  z: 0.1578947368421052
---
linear:
  x: 0.18947368421052638
  y: 0.0
  z: 0.0
angular:
  x: 0.0
  y: 0.0
  z: 0.26315789473684204
---
linear:
  x: 0.1578947368421053
  y: 0.0
  z: 0.0
angular:
  x: 0.0
  y: 0.0
  z: 0.26315789473684204
---
linear:
  x: 0.20000000000000007
  y: 0.0
  z: 0.0
angular:
  x: 0.0
  y: 0.0
  z: 0.26315789473684204
---
linear:
  x: 0.20000000000000007
  y: 0.0
  z: 0.0
angular:
  x: 0.0
  y: 0.0
  z: 0.26315789473684204
---
linear:
  x: 0.0
  y: 0.0
  z: 0.0
angular:
  x: 0.0
  y: 0.0
  z: 0.0
---
linear:
  x: 0.0
  y: 0.0
  z: 0.0
angular:
  x: 0.0
  y: 0.0
  z: 0.5789473684210525
---
linear:
  x: 0.0
  y: 0.0
  z: 0.0
angular:
  x: 0.0
  y: 0.0
  z: 0.0
---
linear:
  x: 0.0
  y: 0.0
  z: 0.0
angular:
  x: 0.0
  y: 0.0
  z: -0.4736842105263158
---
linear:
  x: 0.0
  y: 0.0
  z: 0.0
angular:
  x: 0.0
  y: 0.0
  z: -0.4736842105263158
---
linear:
  x: 0.0
  y: 0.0
  z: 0.0
angular:
  x: 0.0
  y: 0.0
  z: -0.4736842105263158
---
linear:
  x: 0.0
  y: 0.0
  z: 0.0
angular:
  x: 0.0
  y: 0.0
  z: -0.4736842105263158
---
linear:
  x: 0.0
  y: 0.0
  z: 0.0
angular:
  x: 0.0
  y: 0.0
  z: -0.4736842105263158
---
linear:
  x: 0.0
  y: 0.0
  z: 0.0
angular:
  x: 0.0
  y: 0.0
  z: -0.4736842105263158
---
linear:
  x: 0.0
  y: 0.0
  z: 0.0
angular:
  x: 0.0
  y: 0.0
  z: -0.368421052631579
---
linear:
  x: 0.0
  y: 0.0
  z: 0.0
angular:
  x: 0.0
  y: 0.0
  z: -0.368421052631579
---
linear:
  x: 0.0
  y: 0.0
  z: 0.0
angular:
  x: 0.0
  y: 0.0
  z: -0.368421052631579
---
linear:
  x: 0.0
  y: 0.0
  z: 0.0
angular:
  x: 0.0
  y: 0.0
  z: -0.368421052631579
---
linear:
  x: 0.0
  y: 0.0
  z: 0.0
angular:
  x: 0.0
  y: 0.0
  z: -1.0
---
linear:
  x: 0.0
  y: 0.0
  z: 0.0
angular:
  x: 0.0
  y: 0.0
  z: -1.0
---
linear:
  x: 0.010526315789473684
  y: 0.0
  z: 0.0
angular:
  x: 0.0
  y: 0.0
  z: -1.0
---
linear:
  x: 0.010526315789473684
  y: 0.0
  z: 0.0
angular:
  x: 0.0
  y: 0.0
  z: -1.0
---
linear:
  x: 0.010526315789473684
  y: 0.0
  z: 0.0
angular:
  x: 0.0
  y: 0.0
  z: -1.0
---
linear:
  x: 0.0
  y: 0.0
  z: 0.0
angular:
  x: 0.0
  y: 0.0
  z: -1.0
---
linear:
  x: 0.0
  y: 0.0
  z: 0.0
angular:
  x: 0.0
  y: 0.0
  z: -1.0
---
linear:
  x: 0.0
  y: 0.0
  z: 0.0
angular:
  x: 0.0
  y: 0.0
  z: -1.0
---
linear:
  x: 0.0
  y: 0.0
  z: 0.0
angular:
  x: 0.0
  y: 0.0
  z: -1.0
---
linear:
  x: 0.010526315789473684
  y: 0.0
  z: 0.0
angular:
  x: 0.0
  y: 0.0
  z: -1.0
---
linear:
  x: 0.0
  y: 0.0
  z: 0.0
angular:
  x: 0.0
  y: 0.0
  z: -1.0
---
linear:
  x: 0.0
  y: 0.0
  z: 0.0
angular:
  x: 0.0
  y: 0.0
  z: -1.0
---
linear:
  x: 0.0
  y: 0.0
  z: 0.0
angular:
  x: 0.0
  y: 0.0
  z: -1.0
---
linear:
  x: 0.010526315789473684
  y: 0.0
  z: 0.0
angular:
  x: 0.0
  y: 0.0
  z: -1.0
---
linear:
  x: 0.010526315789473684
  y: 0.0
  z: 0.0
angular:
  x: 0.0
  y: 0.0
  z: -1.0
---
linear:
  x: 0.010526315789473684
  y: 0.0
  z: 0.0
angular:
  x: 0.0
  y: 0.0
  z: -1.0
---
linear:
  x: 0.010526315789473684
  y: 0.0
  z: 0.0
angular:
  x: 0.0
  y: 0.0
  z: -1.0
---
linear:
  x: 0.0
  y: 0.0
  z: 0.0
angular:
  x: 0.0
  y: 0.0
  z: -1.0
---
linear:
  x: 0.0
  y: 0.0
  z: 0.0
angular:
  x: 0.0
  y: 0.0
  z: -1.0
---
linear:
  x: 0.031578947368421054
  y: 0.0
  z: 0.0
angular:
  x: 0.0
  y: 0.0
  z: -1.0
---
linear:
  x: 0.021052631578947368
  y: 0.0
  z: 0.0
angular:
  x: 0.0
  y: 0.0
  z: -1.0
---
linear:
  x: 0.021052631578947368
  y: 0.0
  z: 0.0
angular:
  x: 0.0
  y: 0.0
  z: -1.0
---
linear:
  x: 0.11578947368421055
  y: 0.0
  z: 0.0
angular:
  x: 0.0
  y: 0.0
  z: -1.0
---
linear:
  x: 0.031578947368421054
  y: 0.0
  z: 0.0
angular:
  x: 0.0
  y: 0.0
  z: -1.0
---
linear:
  x: 0.031578947368421054
  y: 0.0
  z: 0.0
angular:
  x: 0.0
  y: 0.0
  z: -1.0
---
linear:
  x: 0.1789473684210527
  y: 0.0
  z: 0.0
angular:
  x: 0.0
  y: 0.0
  z: -1.0
---
linear:
  x: 0.14736842105263162
  y: 0.0
  z: 0.0
angular:
  x: 0.0
  y: 0.0
  z: -1.0
---
linear:
  x: 0.12631578947368424
  y: 0.0
  z: 0.0
angular:
  x: 0.0
  y: 0.0
  z: -1.0
---
linear:
  x: 0.12631578947368424
  y: 0.0
  z: 0.0
angular:
  x: 0.0
  y: 0.0
  z: -1.0
---
linear:
  x: 0.13684210526315793
  y: 0.0
  z: 0.0
angular:
  x: 0.0
  y: 0.0
  z: -1.0
---
linear:
  x: 0.13684210526315793
  y: 0.0
  z: 0.0
angular:
  x: 0.0
  y: 0.0
  z: -1.0
---
linear:
  x: 0.20000000000000007
  y: 0.0
  z: 0.0
angular:
  x: 0.0
  y: 0.0
  z: -1.0
---
linear:
  x: 0.168421052631579
  y: 0.0
  z: 0.0
angular:
  x: 0.0
  y: 0.0
  z: -0.6842105263157895
---
linear:
  x: 0.168421052631579
  y: 0.0
  z: 0.0
angular:
  x: 0.0
  y: 0.0
  z: -0.6842105263157895
---
linear:
  x: 0.168421052631579
  y: 0.0
  z: 0.0
angular:
  x: 0.0
  y: 0.0
  z: -0.6842105263157895
---
linear:
  x: 0.14736842105263162
  y: 0.0
  z: 0.0
angular:
  x: 0.0
  y: 0.0
  z: -0.7894736842105263
---
linear:
  x: 0.18947368421052638
  y: 0.0
  z: 0.0
angular:
  x: 0.0
  y: 0.0
  z: -0.4736842105263158
---
linear:
  x: 0.18947368421052638
  y: 0.0
  z: 0.0
angular:
  x: 0.0
  y: 0.0
  z: -0.4736842105263158
---
linear:
  x: 0.18947368421052638
  y: 0.0
  z: 0.0
angular:
  x: 0.0
  y: 0.0
  z: -0.6842105263157895
---
linear:
  x: 0.1789473684210527
  y: 0.0
  z: 0.0
angular:
  x: 0.0
  y: 0.0
  z: -0.26315789473684215
---
linear:
  x: 0.20000000000000007
  y: 0.0
  z: 0.0
angular:
  x: 0.0
  y: 0.0
  z: -0.4736842105263158
---
linear:
  x: 0.20000000000000007
  y: 0.0
  z: 0.0
angular:
  x: 0.0
  y: 0.0
  z: -0.1578947368421053
---
linear:
  x: 0.20000000000000007
  y: 0.0
  z: 0.0
angular:
  x: 0.0
  y: 0.0
  z: -0.1578947368421053
---
linear:
  x: 0.20000000000000007
  y: 0.0
  z: 0.0
angular:
  x: 0.0
  y: 0.0
  z: -0.26315789473684215
---
linear:
  x: 0.1789473684210527
  y: 0.0
  z: 0.0
angular:
  x: 0.0
  y: 0.0
  z: -0.26315789473684215
---
linear:
  x: 0.20000000000000007
  y: 0.0
  z: 0.0
angular:
  x: 0.0
  y: 0.0
  z: -0.052631578947368474
---
linear:
  x: 0.20000000000000007
  y: 0.0
  z: 0.0
angular:
  x: 0.0
  y: 0.0
  z: -0.052631578947368474
---
linear:
  x: 0.18947368421052638
  y: 0.0
  z: 0.0
angular:
  x: 0.0
  y: 0.0
  z: -0.1578947368421053
---
linear:
  x: 0.168421052631579
  y: 0.0
  z: 0.0
angular:
  x: 0.0
  y: 0.0
  z: -0.1578947368421053
---
linear:
  x: 0.1789473684210527
  y: 0.0
  z: 0.0
angular:
  x: 0.0
  y: 0.0
  z: 0.0
---
linear:
  x: 0.1789473684210527
  y: 0.0
  z: 0.0
angular:
  x: 0.0
  y: 0.0
  z: 0.0
---
linear:
  x: 0.14736842105263162
  y: 0.0
  z: 0.0
angular:
  x: 0.0
  y: 0.0
  z: 0.05263157894736836
---
linear:
  x: 0.20000000000000007
  y: 0.0
  z: 0.0
angular:
  x: 0.0
  y: 0.0
  z: 0.05263157894736836
---
linear:
  x: 0.1789473684210527
  y: 0.0
  z: 0.0
angular:
  x: 0.0
  y: 0.0
  z: 0.05263157894736836
---
linear:
  x: 0.1578947368421053
  y: 0.0
  z: 0.0
angular:
  x: 0.0
  y: 0.0
  z: 0.1578947368421052
---
linear:
  x: 0.1789473684210527
  y: 0.0
  z: 0.0
angular:
  x: 0.0
  y: 0.0
  z: 0.1578947368421052
---
linear:
  x: 0.20000000000000007
  y: 0.0
  z: 0.0
angular:
  x: 0.0
  y: 0.0
  z: 0.1578947368421052
---
linear:
  x: 0.20000000000000007
  y: 0.0
  z: 0.0
angular:
  x: 0.0
  y: 0.0
  z: 0.1578947368421052
---
linear:
  x: 0.1578947368421053
  y: 0.0
  z: 0.0
angular:
  x: 0.0
  y: 0.0
  z: 0.1578947368421052
---
linear:
  x: 0.1789473684210527
  y: 0.0
  z: 0.0
angular:
  x: 0.0
  y: 0.0
  z: 0.1578947368421052
---
linear:
  x: 0.14736842105263162
  y: 0.0
  z: 0.0
angular:
  x: 0.0
  y: 0.0
  z: 0.1578947368421052
---
linear:
  x: 0.18947368421052638
  y: 0.0
  z: 0.0
angular:
  x: 0.0
  y: 0.0
  z: 0.1578947368421052
---
linear:
  x: 0.18947368421052638
  y: 0.0
  z: 0.0
angular:
  x: 0.0
  y: 0.0
  z: 0.1578947368421052
---
linear:
  x: 0.1789473684210527
  y: 0.0
  z: 0.0
angular:
  x: 0.0
  y: 0.0
  z: 0.26315789473684204
---
linear:
  x: 0.1789473684210527
  y: 0.0
  z: 0.0
angular:
  x: 0.0
  y: 0.0
  z: 0.26315789473684204
---
linear:
  x: 0.1789473684210527
  y: 0.0
  z: 0.0
angular:
  x: 0.0
  y: 0.0
  z: 0.6842105263157894
---
linear:
  x: 0.168421052631579
  y: 0.0
  z: 0.0
angular:
  x: 0.0
  y: 0.0
  z: 0.6842105263157894
---
linear:
  x: 0.168421052631579
  y: 0.0
  z: 0.0
angular:
  x: 0.0
  y: 0.0
  z: 0.6842105263157894
---
linear:
  x: 0.18947368421052638
  y: 0.0
  z: 0.0
angular:
  x: 0.0
  y: 0.0
  z: 0.5789473684210525
---
linear:
  x: 0.1789473684210527
  y: 0.0
  z: 0.0
angular:
  x: 0.0
  y: 0.0
  z: 0.5789473684210525
---
linear:
  x: 0.20000000000000007
  y: 0.0
  z: 0.0
angular:
  x: 0.0
  y: 0.0
  z: 0.4736842105263157
---
linear:
  x: 0.18947368421052638
  y: 0.0
  z: 0.0
angular:
  x: 0.0
  y: 0.0
  z: 0.36842105263157887
---
linear:
  x: 0.18947368421052638
  y: 0.0
  z: 0.0
angular:
  x: 0.0
  y: 0.0
  z: 0.36842105263157887
---
linear:
  x: 0.168421052631579
  y: 0.0
  z: 0.0
angular:
  x: 0.0
  y: 0.0
  z: 0.36842105263157887
---
linear:
  x: 0.168421052631579
  y: 0.0
  z: 0.0
angular:
  x: 0.0
  y: 0.0
  z: 0.36842105263157887
---
linear:
  x: 0.18947368421052638
  y: 0.0
  z: 0.0
angular:
  x: 0.0
  y: 0.0
  z: 0.26315789473684204
---
linear:
  x: 0.18947368421052638
  y: 0.0
  z: 0.0
angular:
  x: 0.0
  y: 0.0
  z: 0.26315789473684204
---
linear:
  x: 0.168421052631579
  y: 0.0
  z: 0.0
angular:
  x: 0.0
  y: 0.0
  z: 0.1578947368421052
---
linear:
  x: 0.168421052631579
  y: 0.0
  z: 0.0
angular:
  x: 0.0
  y: 0.0
  z: 0.1578947368421052
---
linear:
  x: 0.14736842105263162
  y: 0.0
  z: 0.0
angular:
  x: 0.0
  y: 0.0
  z: 0.1578947368421052
---
linear:
  x: 0.1789473684210527
  y: 0.0
  z: 0.0
angular:
  x: 0.0
  y: 0.0
  z: 0.05263157894736836
---
linear:
  x: 0.18947368421052638
  y: 0.0
  z: 0.0
angular:
  x: 0.0
  y: 0.0
  z: 0.1578947368421052
---
linear:
  x: 0.18947368421052638
  y: 0.0
  z: 0.0
angular:
  x: 0.0
  y: 0.0
  z: 0.1578947368421052
---
linear:
  x: 0.18947368421052638
  y: 0.0
  z: 0.0
angular:
  x: 0.0
  y: 0.0
  z: 0.1578947368421052
---
linear:
  x: 0.18947368421052638
  y: 0.0
  z: 0.0
angular:
  x: 0.0
  y: 0.0
  z: 0.05263157894736836
---
linear:
  x: 0.168421052631579
  y: 0.0
  z: 0.0
angular:
  x: 0.0
  y: 0.0
  z: 0.05263157894736836
---
linear:
  x: 0.168421052631579
  y: 0.0
  z: 0.0
angular:
  x: 0.0
  y: 0.0
  z: 0.05263157894736836
---
linear:
  x: 0.168421052631579
  y: 0.0
  z: 0.0
angular:
  x: 0.0
  y: 0.0
  z: 0.05263157894736836
---
linear:
  x: 0.14736842105263162
  y: 0.0
  z: 0.0
angular:
  x: 0.0
  y: 0.0
  z: 0.05263157894736836
---
linear:
  x: 0.14736842105263162
  y: 0.0
  z: 0.0
angular:
  x: 0.0
  y: 0.0
  z: 0.05263157894736836
---
linear:
  x: 0.1789473684210527
  y: 0.0
  z: 0.0
angular:
  x: 0.0
  y: 0.0
  z: -0.052631578947368474
---
linear:
  x: 0.1578947368421053
  y: 0.0
  z: 0.0
angular:
  x: 0.0
  y: 0.0
  z: -0.052631578947368474
---
linear:
  x: 0.18947368421052638
  y: 0.0
  z: 0.0
angular:
  x: 0.0
  y: 0.0
  z: -0.052631578947368474
---
linear:
  x: 0.168421052631579
  y: 0.0
  z: 0.0
angular:
  x: 0.0
  y: 0.0
  z: -0.052631578947368474
---
linear:
  x: 0.168421052631579
  y: 0.0
  z: 0.0
angular:
  x: 0.0
  y: 0.0
  z: -0.052631578947368474
---
linear:
  x: 0.14736842105263162
  y: 0.0
  z: 0.0
angular:
  x: 0.0
  y: 0.0
  z: -0.052631578947368474
---
linear:
  x: 0.20000000000000007
  y: 0.0
  z: 0.0
angular:
  x: 0.0
  y: 0.0
  z: -0.1578947368421053
---
linear:
  x: 0.1789473684210527
  y: 0.0
  z: 0.0
angular:
  x: 0.0
  y: 0.0
  z: -0.1578947368421053
---
linear:
  x: 0.1578947368421053
  y: 0.0
  z: 0.0
angular:
  x: 0.0
  y: 0.0
  z: -0.1578947368421053
---
linear:
  x: 0.1789473684210527
  y: 0.0
  z: 0.0
angular:
  x: 0.0
  y: 0.0
  z: -0.26315789473684215
---
linear:
  x: 0.1578947368421053
  y: 0.0
  z: 0.0
angular:
  x: 0.0
  y: 0.0
  z: -0.26315789473684215
---
linear:
  x: 0.20000000000000007
  y: 0.0
  z: 0.0
angular:
  x: 0.0
  y: 0.0
  z: -0.26315789473684215
---
linear:
  x: 0.1789473684210527
  y: 0.0
  z: 0.0
angular:
  x: 0.0
  y: 0.0
  z: -0.26315789473684215
---
linear:
  x: 0.1789473684210527
  y: 0.0
  z: 0.0
angular:
  x: 0.0
  y: 0.0
  z: -0.26315789473684215
---
linear:
  x: 0.168421052631579
  y: 0.0
  z: 0.0
angular:
  x: 0.0
  y: 0.0
  z: -0.1578947368421053
---
linear:
  x: 0.20000000000000007
  y: 0.0
  z: 0.0
angular:
  x: 0.0
  y: 0.0
  z: -0.052631578947368474
---
linear:
  x: 0.168421052631579
  y: 0.0
  z: 0.0
angular:
  x: 0.0
  y: 0.0
  z: -0.052631578947368474
---
linear:
  x: 0.14736842105263162
  y: 0.0
  z: 0.0
angular:
  x: 0.0
  y: 0.0
  z: 0.05263157894736836
---
linear:
  x: 0.14736842105263162
  y: 0.0
  z: 0.0
angular:
  x: 0.0
  y: 0.0
  z: 0.05263157894736836
---
linear:
  x: 0.18947368421052638
  y: 0.0
  z: 0.0
angular:
  x: 0.0
  y: 0.0
  z: 0.05263157894736836
---
linear:
  x: 0.1578947368421053
  y: 0.0
  z: 0.0
angular:
  x: 0.0
  y: 0.0
  z: 0.05263157894736836
---
linear:
  x: 0.1578947368421053
  y: 0.0
  z: 0.0
angular:
  x: 0.0
  y: 0.0
  z: 0.05263157894736836
---
linear:
  x: 0.1578947368421053
  y: 0.0
  z: 0.0
angular:
  x: 0.0
  y: 0.0
  z: 0.05263157894736836
---
linear:
  x: 0.13684210526315793
  y: 0.0
  z: 0.0
angular:
  x: 0.0
  y: 0.0
  z: 0.05263157894736836
---
linear:
  x: 0.18947368421052638
  y: 0.0
  z: 0.0
angular:
  x: 0.0
  y: 0.0
  z: 0.05263157894736836
---
linear:
  x: 0.18947368421052638
  y: 0.0
  z: 0.0
angular:
  x: 0.0
  y: 0.0
  z: 0.05263157894736836
---
linear:
  x: 0.1578947368421053
  y: 0.0
  z: 0.0
angular:
  x: 0.0
  y: 0.0
  z: 0.05263157894736836
---
linear:
  x: 0.14736842105263162
  y: 0.0
  z: 0.0
angular:
  x: 0.0
  y: 0.0
  z: 0.05263157894736836
---
linear:
  x: 0.14736842105263162
  y: 0.0
  z: 0.0
angular:
  x: 0.0
  y: 0.0
  z: 0.1578947368421052
---
linear:
  x: 0.1789473684210527
  y: 0.0
  z: 0.0
angular:
  x: 0.0
  y: 0.0
  z: 0.1578947368421052
---
linear:
  x: 0.1578947368421053
  y: 0.0
  z: 0.0
angular:
  x: 0.0
  y: 0.0
  z: 0.1578947368421052
---
linear:
  x: 0.1789473684210527
  y: 0.0
  z: 0.0
angular:
  x: 0.0
  y: 0.0
  z: 0.05263157894736836
---
linear:
  x: 0.20000000000000007
  y: 0.0
  z: 0.0
angular:
  x: 0.0
  y: 0.0
  z: 0.26315789473684204
---
linear:
  x: 0.1789473684210527
  y: 0.0
  z: 0.0
angular:
  x: 0.0
  y: 0.0
  z: 0.26315789473684204
---
linear:
  x: 0.18947368421052638
  y: 0.0
  z: 0.0
angular:
  x: 0.0
  y: 0.0
  z: 0.1578947368421052
---
linear:
  x: 0.18947368421052638
  y: 0.0
  z: 0.0
angular:
  x: 0.0
  y: 0.0
  z: 0.1578947368421052
---
linear:
  x: 0.14736842105263162
  y: 0.0
  z: 0.0
angular:
  x: 0.0
  y: 0.0
  z: 0.1578947368421052
---
linear:
  x: 0.0
  y: 0.0
  z: 0.0
angular:
  x: 0.0
  y: 0.0
  z: -0.26315789473684215
---
linear:
  x: 0.0
  y: 0.0
  z: 0.0
angular:
  x: 0.0
  y: 0.0
  z: 0.1578947368421052
---
linear:
  x: 0.0
  y: 0.0
  z: 0.0
angular:
  x: 0.0
  y: 0.0
  z: 0.0
---
linear:
  x: 0.0
  y: 0.0
  z: 0.0
angular:
  x: 0.0
  y: 0.0
  z: -0.052631578947368474
---
linear:
  x: 0.0
  y: 0.0
  z: 0.0
angular:
  x: 0.0
  y: 0.0
  z: -0.052631578947368474
---
linear:
  x: 0.0
  y: 0.0
  z: 0.0
angular:
  x: 0.0
  y: 0.0
  z: -0.052631578947368474
---
linear:
  x: 0.0
  y: 0.0
  z: 0.0
angular:
  x: 0.0
  y: 0.0
  z: -0.052631578947368474
---
linear:
  x: 0.0
  y: 0.0
  z: 0.0
angular:
  x: 0.0
  y: 0.0
  z: -0.052631578947368474
---
linear:
  x: 0.0
  y: 0.0
  z: 0.0
angular:
  x: 0.0
  y: 0.0
  z: -0.052631578947368474
---
linear:
  x: 0.0
  y: 0.0
  z: 0.0
angular:
  x: 0.0
  y: 0.0
  z: -0.052631578947368474
---
linear:
  x: 0.0
  y: 0.0
  z: 0.0
angular:
  x: 0.0
  y: 0.0
  z: -0.052631578947368474
---
linear:
  x: 0.0
  y: 0.0
  z: 0.0
angular:
  x: 0.0
  y: 0.0
  z: -0.052631578947368474
---
linear:
  x: 0.0
  y: 0.0
  z: 0.0
angular:
  x: 0.0
  y: 0.0
  z: -0.052631578947368474
---
linear:
  x: 0.0
  y: 0.0
  z: 0.0
angular:
  x: 0.0
  y: 0.0
  z: -0.052631578947368474
---
linear:
  x: 0.0
  y: 0.0
  z: 0.0
angular:
  x: 0.0
  y: 0.0
  z: -0.052631578947368474
---
linear:
  x: 0.0
  y: 0.0
  z: 0.0
angular:
  x: 0.0
  y: 0.0
  z: -0.052631578947368474
---
linear:
  x: 0.0
  y: 0.0
  z: 0.0
angular:
  x: 0.0
  y: 0.0
  z: -0.052631578947368474
---
linear:
  x: 0.0
  y: 0.0
  z: 0.0
angular:
  x: 0.0
  y: 0.0
  z: 0.0
---
linear:
  x: 0.0
  y: 0.0
  z: 0.0
angular:
  x: 0.0
  y: 0.0
  z: -0.052631578947368474
---
linear:
  x: 0.0
  y: 0.0
  z: 0.0
angular:
  x: 0.0
  y: 0.0
  z: 0.0
---
linear:
  x: 0.0
  y: 0.0
  z: 0.0
angular:
  x: 0.0
  y: 0.0
  z: 0.0
---
