linear:
  x: 0.19736842105263153
  y: 0.0
  z: 0.0
angular:
  x: 0.0
  y: 0.0
  z: 0.37241379310344785
---
linear:
  x: 0.19736842105263153
  y: 0.0
  z: 0.0
angular:
  x: 0.0
  y: 0.0
  z: 0.37241379310344785
---
linear:
  x: 0.19736842105263153
  y: 0.0
  z: 0.0
angular:
  x: 0.0
  y: 0.0
  z: 0.37241379310344785
---
linear:
  x: 0.19736842105263153
  y: 0.0
  z: 0.0
angular:
  x: 0.0
  y: 0.0
  z: 0.37241379310344785
---
linear:
  x: 0.19736842105263153
  y: 0.0
  z: 0.0
angular:
  x: 0.0
  y: 0.0
  z: 0.37241379310344785
---
linear:
  x: 0.18421052631578944
  y: 0.0
  z: 0.0
angular:
  x: 0.0
  y: 0.0
  z: 0.37241379310344785
---
linear:
  x: 0.17105263157894735
  y: 0.0
  z: 0.0
angular:
  x: 0.0
  y: 0.0
  z: 0.2896551724137927
---
linear:
  x: 0.19736842105263153
  y: 0.0
  z: 0.0
angular:
  x: 0.0
  y: 0.0
  z: 0.2068965517241375
---
linear:
  x: 0.18421052631578944
  y: 0.0
  z: 0.0
angular:
  x: 0.0
  y: 0.0
  z: 0.2068965517241375
---
linear:
  x: 0.18421052631578944
  y: 0.0
  z: 0.0
angular:
  x: 0.0
  y: 0.0
  z: 0.2068965517241375
---
linear:
  x: 0.17105263157894735
  y: 0.0
  z: 0.0
angular:
  x: 0.0
  y: 0.0
  z: 0.2068965517241375
---
linear:
  x: 0.19736842105263153
  y: 0.0
  z: 0.0
angular:
  x: 0.0
  y: 0.0
  z: 0.12413793103448234
---
linear:
  x: 0.17105263157894735
  y: 0.0
  z: 0.0
angular:
  x: 0.0
  y: 0.0
  z: 0.12413793103448234
---
linear:
  x: 0.19736842105263153
  y: 0.0
  z: 0.0
angular:
  x: 0.0
  y: 0.0
  z: -0.20689655172413834
---
linear:
  x: 0.19736842105263153
  y: 0.0
  z: 0.0
angular:
  x: 0.0
  y: 0.0
  z: -0.20689655172413834
---
linear:
  x: 0.18421052631578944
  y: 0.0
  z: 0.0
angular:
  x: 0.0
  y: 0.0
  z: -0.2896551724137935
---
linear:
  x: 0.19736842105263153
  y: 0.0
  z: 0.0
angular:
  x: 0.0
  y: 0.0
  z: -0.2896551724137935
---
linear:
  x: 0.15789473684210525
  y: 0.0
  z: 0.0
angular:
  x: 0.0
  y: 0.0
  z: -0.3724137931034487
---
linear:
  x: 0.15789473684210525
  y: 0.0
  z: 0.0
angular:
  x: 0.0
  y: 0.0
  z: -0.3724137931034487
---
linear:
  x: 0.15789473684210525
  y: 0.0
  z: 0.0
angular:
  x: 0.0
  y: 0.0
  z: -0.3724137931034487
---
linear:
  x: 0.19736842105263153
  y: 0.0
  z: 0.0
angular:
  x: 0.0
  y: 0.0
  z: -0.2896551724137935
---
linear:
  x: 0.18421052631578944
  y: 0.0
  z: 0.0
angular:
  x: 0.0
  y: 0.0
  z: -0.3724137931034487
---
linear:
  x: 0.18421052631578944
  y: 0.0
  z: 0.0
angular:
  x: 0.0
  y: 0.0
  z: -0.3724137931034487
---
linear:
  x: 0.19736842105263153
  y: 0.0
  z: 0.0
angular:
  x: 0.0
  y: 0.0
  z: -0.041379310344828
---
linear:
  x: 0.19736842105263153
  y: 0.0
  z: 0.0
angular:
  x: 0.0
  y: 0.0
  z: -0.041379310344828
---
linear:
  x: 0.19736842105263153
  y: 0.0
  z: 0.0
angular:
  x: 0.0
  y: 0.0
  z: -0.2896551724137935
---
linear:
  x: 0.19736842105263153
  y: 0.0
  z: 0.0
angular:
  x: 0.0
  y: 0.0
  z: 0.37241379310344785
---
linear:
  x: 0.19736842105263153
  y: 0.0
  z: 0.0
angular:
  x: 0.0
  y: 0.0
  z: 0.455172413793103
---
linear:
  x: 0.19736842105263153
  y: 0.0
  z: 0.0
angular:
  x: 0.0
  y: 0.0
  z: 0.455172413793103
---
linear:
  x: 0.19736842105263153
  y: 0.0
  z: 0.0
angular:
  x: 0.0
  y: 0.0
  z: 0.455172413793103
---
linear:
  x: 0.19736842105263153
  y: 0.0
  z: 0.0
angular:
  x: 0.0
  y: 0.0
  z: 0.7034482758620684
---
linear:
  x: 0.19736842105263153
  y: 0.0
  z: 0.0
angular:
  x: 0.0
  y: 0.0
  z: 0.8689655172413786
---
linear:
  x: 0.19736842105263153
  y: 0.0
  z: 0.0
angular:
  x: 0.0
  y: 0.0
  z: 0.8689655172413786
---
linear:
  x: 0.19736842105263153
  y: 0.0
  z: 0.0
angular:
  x: 0.0
  y: 0.0
  z: 0.6206896551724133
---
linear:
  x: 0.17105263157894735
  y: 0.0
  z: 0.0
angular:
  x: 0.0
  y: 0.0
  z: 0.6206896551724133
---
linear:
  x: 0.17105263157894735
  y: 0.0
  z: 0.0
angular:
  x: 0.0
  y: 0.0
  z: 0.6206896551724133
---
linear:
  x: 0.19736842105263153
  y: 0.0
  z: 0.0
angular:
  x: 0.0
  y: 0.0
  z: 0.455172413793103
---
linear:
  x: 0.19736842105263153
  y: 0.0
  z: 0.0
angular:
  x: 0.0
  y: 0.0
  z: 0.455172413793103
---
linear:
  x: 0.19736842105263153
  y: 0.0
  z: 0.0
angular:
  x: 0.0
  y: 0.0
  z: 0.455172413793103
---
linear:
  x: 0.19736842105263153
  y: 0.0
  z: 0.0
angular:
  x: 0.0
  y: 0.0
  z: 0.455172413793103
---
linear:
  x: 0.17105263157894735
  y: 0.0
  z: 0.0
angular:
  x: 0.0
  y: 0.0
  z: 0.455172413793103
---
linear:
  x: 0.17105263157894735
  y: 0.0
  z: 0.0
angular:
  x: 0.0
  y: 0.0
  z: 0.455172413793103
---
linear:
  x: 0.19736842105263153
  y: 0.0
  z: 0.0
angular:
  x: 0.0
  y: 0.0
  z: 0.04137931034482717
---
linear:
  x: 0.17105263157894735
  y: 0.0
  z: 0.0
angular:
  x: 0.0
  y: 0.0
  z: 0.0
---
linear:
  x: 0.17105263157894735
  y: 0.0
  z: 0.0
angular:
  x: 0.0
  y: 0.0
  z: 0.0
---
linear:
  x: 0.17105263157894735
  y: 0.0
  z: 0.0
angular:
  x: 0.0
  y: 0.0
  z: 0.0
---
linear:
  x: 0.19736842105263153
  y: 0.0
  z: 0.0
angular:
  x: 0.0
  y: 0.0
  z: 0.12413793103448234
---
linear:
  x: 0.19736842105263153
  y: 0.0
  z: 0.0
angular:
  x: 0.0
  y: 0.0
  z: 0.12413793103448234
---
linear:
  x: 0.18421052631578944
  y: 0.0
  z: 0.0
angular:
  x: 0.0
  y: 0.0
  z: 0.04137931034482717
---
linear:
  x: 0.15789473684210525
  y: 0.0
  z: 0.0
angular:
  x: 0.0
  y: 0.0
  z: -0.3724137931034487
---
linear:
  x: 0.15789473684210525
  y: 0.0
  z: 0.0
angular:
  x: 0.0
  y: 0.0
  z: -0.7034482758620693
---
linear:
  x: 0.14473684210526316
  y: 0.0
  z: 0.0
angular:
  x: 0.0
  y: 0.0
  z: -0.8689655172413795
---
linear:
  x: 0.14473684210526316
  y: 0.0
  z: 0.0
angular:
  x: 0.0
  y: 0.0
  z: -0.8689655172413795
---
linear:
  x: 0.18421052631578944
  y: 0.0
  z: 0.0
angular:
  x: 0.0
  y: 0.0
  z: -1.2
---
linear:
  x: 0.15789473684210525
  y: 0.0
  z: 0.0
angular:
  x: 0.0
  y: 0.0
  z: -0.7862068965517244
---
linear:
  x: 0.18421052631578944
  y: 0.0
  z: 0.0
angular:
  x: 0.0
  y: 0.0
  z: -0.537931034482759
---
linear:
  x: 0.0
  y: 0.0
  z: 0.0
angular:
  x: 0.0
  y: 0.0
  z: 0.0
---
linear:
  x: 0.18421052631578944
  y: 0.0
  z: 0.0
angular:
  x: 0.0
  y: 0.0
  z: -0.12413793103448317
---
linear:
  x: 0.18421052631578944
  y: 0.0
  z: 0.0
angular:
  x: 0.0
  y: 0.0
  z: -0.12413793103448317
---
linear:
  x: 0.19736842105263153
  y: 0.0
  z: 0.0
angular:
  x: 0.0
  y: 0.0
  z: -0.041379310344828
---
linear:
  x: 0.19736842105263153
  y: 0.0
  z: 0.0
angular:
  x: 0.0
  y: 0.0
  z: -0.041379310344828
---
linear:
  x: 0.19736842105263153
  y: 0.0
  z: 0.0
angular:
  x: 0.0
  y: 0.0
  z: 0.04137931034482717
---
linear:
  x: 0.19736842105263153
  y: 0.0
  z: 0.0
angular:
  x: 0.0
  y: 0.0
  z: 0.12413793103448234
---
linear:
  x: 0.18421052631578944
  y: 0.0
  z: 0.0
angular:
  x: 0.0
  y: 0.0
  z: 0.12413793103448234
---
linear:
  x: 0.18421052631578944
  y: 0.0
  z: 0.0
angular:
  x: 0.0
  y: 0.0
  z: 0.04137931034482717
---
linear:
  x: 0.18421052631578944
  y: 0.0
  z: 0.0
angular:
  x: 0.0
  y: 0.0
  z: 0.04137931034482717
---
linear:
  x: 0.19736842105263153
  y: 0.0
  z: 0.0
angular:
  x: 0.0
  y: 0.0
  z: 0.2068965517241375
---
linear:
  x: 0.0
  y: 0.0
  z: 0.0
angular:
  x: 0.0
  y: 0.0
  z: 0.0
---
linear:
  x: 0.15789473684210525
  y: 0.0
  z: 0.0
angular:
  x: 0.0
  y: 0.0
  z: -0.041379310344828
---
linear:
  x: 0.15789473684210525
  y: 0.0
  z: 0.0
angular:
  x: 0.0
  y: 0.0
  z: -0.041379310344828
---
linear:
  x: 0.15789473684210525
  y: 0.0
  z: 0.0
angular:
  x: 0.0
  y: 0.0
  z: -0.041379310344828
---
linear:
  x: 0.15789473684210525
  y: 0.0
  z: 0.0
angular:
  x: 0.0
  y: 0.0
  z: -0.041379310344828
---
linear:
  x: 0.19736842105263153
  y: 0.0
  z: 0.0
angular:
  x: 0.0
  y: 0.0
  z: -0.041379310344828
---
linear:
  x: 0.18421052631578944
  y: 0.0
  z: 0.0
angular:
  x: 0.0
  y: 0.0
  z: -0.041379310344828
---
linear:
  x: 0.19736842105263153
  y: 0.0
  z: 0.0
angular:
  x: 0.0
  y: 0.0
  z: -0.12413793103448317
---
linear:
  x: 0.18421052631578944
  y: 0.0
  z: 0.0
angular:
  x: 0.0
  y: 0.0
  z: -0.12413793103448317
---
linear:
  x: 0.19736842105263153
  y: 0.0
  z: 0.0
angular:
  x: 0.0
  y: 0.0
  z: -0.041379310344828
---
linear:
  x: 0.17105263157894735
  y: 0.0
  z: 0.0
angular:
  x: 0.0
  y: 0.0
  z: 0.04137931034482717
---
linear:
  x: 0.15789473684210525
  y: 0.0
  z: 0.0
angular:
  x: 0.0
  y: 0.0
  z: 0.04137931034482717
---
linear:
  x: 0.17105263157894735
  y: 0.0
  z: 0.0
angular:
  x: 0.0
  y: 0.0
  z: 0.0
---
linear:
  x: 0.17105263157894735
  y: 0.0
  z: 0.0
angular:
  x: 0.0
  y: 0.0
  z: 0.0
---
linear:
  x: 0.18421052631578944
  y: 0.0
  z: 0.0
angular:
  x: 0.0
  y: 0.0
  z: 0.0
---
linear:
  x: 0.18421052631578944
  y: 0.0
  z: 0.0
angular:
  x: 0.0
  y: 0.0
  z: 0.04137931034482717
---
linear:
  x: 0.18421052631578944
  y: 0.0
  z: 0.0
angular:
  x: 0.0
  y: 0.0
  z: 0.04137931034482717
---
linear:
  x: 0.17105263157894735
  y: 0.0
  z: 0.0
angular:
  x: 0.0
  y: 0.0
  z: 0.04137931034482717
---
linear:
  x: 0.17105263157894735
  y: 0.0
  z: 0.0
angular:
  x: 0.0
  y: 0.0
  z: 0.04137931034482717
---
linear:
  x: 0.18421052631578944
  y: 0.0
  z: 0.0
angular:
  x: 0.0
  y: 0.0
  z: 0.0
---
linear:
  x: 0.18421052631578944
  y: 0.0
  z: 0.0
angular:
  x: 0.0
  y: 0.0
  z: 0.12413793103448234
---
linear:
  x: 0.17105263157894735
  y: 0.0
  z: 0.0
angular:
  x: 0.0
  y: 0.0
  z: 0.12413793103448234
---
linear:
  x: 0.19736842105263153
  y: 0.0
  z: 0.0
angular:
  x: 0.0
  y: 0.0
  z: 0.04137931034482717
---
linear:
  x: 0.18421052631578944
  y: 0.0
  z: 0.0
angular:
  x: 0.0
  y: 0.0
  z: 0.04137931034482717
---
linear:
  x: 0.18421052631578944
  y: 0.0
  z: 0.0
angular:
  x: 0.0
  y: 0.0
  z: 0.0
---
linear:
  x: 0.18421052631578944
  y: 0.0
  z: 0.0
angular:
  x: 0.0
  y: 0.0
  z: 0.0
---
linear:
  x: 0.17105263157894735
  y: 0.0
  z: 0.0
angular:
  x: 0.0
  y: 0.0
  z: 0.0
---
linear:
  x: 0.17105263157894735
  y: 0.0
  z: 0.0
angular:
  x: 0.0
  y: 0.0
  z: 0.0
---
linear:
  x: 0.17105263157894735
  y: 0.0
  z: 0.0
angular:
  x: 0.0
  y: 0.0
  z: 0.0
---
linear:
  x: 0.19736842105263153
  y: 0.0
  z: 0.0
angular:
  x: 0.0
  y: 0.0
  z: -0.041379310344828
---
linear:
  x: 0.18421052631578944
  y: 0.0
  z: 0.0
angular:
  x: 0.0
  y: 0.0
  z: 0.04137931034482717
---
linear:
  x: 0.17105263157894735
  y: 0.0
  z: 0.0
angular:
  x: 0.0
  y: 0.0
  z: 0.04137931034482717
---
linear:
  x: 0.18421052631578944
  y: 0.0
  z: 0.0
angular:
  x: 0.0
  y: 0.0
  z: -0.041379310344828
---
linear:
  x: 0.18421052631578944
  y: 0.0
  z: 0.0
angular:
  x: 0.0
  y: 0.0
  z: -0.041379310344828
---
linear:
  x: 0.18421052631578944
  y: 0.0
  z: 0.0
angular:
  x: 0.0
  y: 0.0
  z: -0.041379310344828
---
linear:
  x: 0.19736842105263153
  y: 0.0
  z: 0.0
angular:
  x: 0.0
  y: 0.0
  z: 0.0
---
linear:
  x: 0.18421052631578944
  y: 0.0
  z: 0.0
angular:
  x: 0.0
  y: 0.0
  z: 0.0
---
linear:
  x: 0.15789473684210525
  y: 0.0
  z: 0.0
angular:
  x: 0.0
  y: 0.0
  z: 0.0
---
linear:
  x: 0.18421052631578944
  y: 0.0
  z: 0.0
angular:
  x: 0.0
  y: 0.0
  z: -0.041379310344828
---
linear:
  x: 0.15789473684210525
  y: 0.0
  z: 0.0
angular:
  x: 0.0
  y: 0.0
  z: -0.041379310344828
---
linear:
  x: 0.18421052631578944
  y: 0.0
  z: 0.0
angular:
  x: 0.0
  y: 0.0
  z: -0.041379310344828
---
linear:
  x: 0.17105263157894735
  y: 0.0
  z: 0.0
angular:
  x: 0.0
  y: 0.0
  z: -0.041379310344828
---
linear:
  x: 0.15789473684210525
  y: 0.0
  z: 0.0
angular:
  x: 0.0
  y: 0.0
  z: -0.041379310344828
---
linear:
  x: 0.18421052631578944
  y: 0.0
  z: 0.0
angular:
  x: 0.0
  y: 0.0
  z: -0.041379310344828
---
linear:
  x: 0.18421052631578944
  y: 0.0
  z: 0.0
angular:
  x: 0.0
  y: 0.0
  z: -0.041379310344828
---
linear:
  x: 0.15789473684210525
  y: 0.0
  z: 0.0
angular:
  x: 0.0
  y: 0.0
  z: -0.041379310344828
---
linear:
  x: 0.18421052631578944
  y: 0.0
  z: 0.0
angular:
  x: 0.0
  y: 0.0
  z: 0.04137931034482717
---
linear:
  x: 0.15789473684210525
  y: 0.0
  z: 0.0
angular:
  x: 0.0
  y: 0.0
  z: -0.12413793103448317
---
linear:
  x: 0.17105263157894735
  y: 0.0
  z: 0.0
angular:
  x: 0.0
  y: 0.0
  z: -0.12413793103448317
---
linear:
  x: 0.17105263157894735
  y: 0.0
  z: 0.0
angular:
  x: 0.0
  y: 0.0
  z: -0.12413793103448317
---
linear:
  x: 0.19736842105263153
  y: 0.0
  z: 0.0
angular:
  x: 0.0
  y: 0.0
  z: -0.12413793103448317
---
linear:
  x: 0.19736842105263153
  y: 0.0
  z: 0.0
angular:
  x: 0.0
  y: 0.0
  z: -0.12413793103448317
---
linear:
  x: 0.17105263157894735
  y: 0.0
  z: 0.0
angular:
  x: 0.0
  y: 0.0
  z: -0.12413793103448317
---
linear:
  x: 0.15789473684210525
  y: 0.0
  z: 0.0
angular:
  x: 0.0
  y: 0.0
  z: -0.12413793103448317
---
linear:
  x: 0.19736842105263153
  y: 0.0
  z: 0.0
angular:
  x: 0.0
  y: 0.0
  z: -0.20689655172413834
---
linear:
  x: 0.17105263157894735
  y: 0.0
  z: 0.0
angular:
  x: 0.0
  y: 0.0
  z: -0.12413793103448317
---
linear:
  x: 0.17105263157894735
  y: 0.0
  z: 0.0
angular:
  x: 0.0
  y: 0.0
  z: -0.12413793103448317
---
linear:
  x: 0.17105263157894735
  y: 0.0
  z: 0.0
angular:
  x: 0.0
  y: 0.0
  z: -0.12413793103448317
---
linear:
  x: 0.15789473684210525
  y: 0.0
  z: 0.0
angular:
  x: 0.0
  y: 0.0
  z: -0.041379310344828
---
linear:
  x: 0.19736842105263153
  y: 0.0
  z: 0.0
angular:
  x: 0.0
  y: 0.0
  z: 0.0
---
linear:
  x: 0.19736842105263153
  y: 0.0
  z: 0.0
angular:
  x: 0.0
  y: 0.0
  z: 0.0
---
linear:
  x: 0.18421052631578944
  y: 0.0
  z: 0.0
angular:
  x: 0.0
  y: 0.0
  z: 0.04137931034482717
---
linear:
  x: 0.18421052631578944
  y: 0.0
  z: 0.0
angular:
  x: 0.0
  y: 0.0
  z: 0.04137931034482717
---
linear:
  x: 0.18421052631578944
  y: 0.0
  z: 0.0
angular:
  x: 0.0
  y: 0.0
  z: 0.04137931034482717
---
linear:
  x: 0.18421052631578944
  y: 0.0
  z: 0.0
angular:
  x: 0.0
  y: 0.0
  z: 0.04137931034482717
---
linear:
  x: 0.18421052631578944
  y: 0.0
  z: 0.0
angular:
  x: 0.0
  y: 0.0
  z: 0.04137931034482717
---
linear:
  x: 0.18421052631578944
  y: 0.0
  z: 0.0
angular:
  x: 0.0
  y: 0.0
  z: 0.04137931034482717
---
linear:
  x: 0.18421052631578944
  y: 0.0
  z: 0.0
angular:
  x: 0.0
  y: 0.0
  z: 0.0
---
linear:
  x: 0.18421052631578944
  y: 0.0
  z: 0.0
angular:
  x: 0.0
  y: 0.0
  z: 0.0
---
linear:
  x: 0.15789473684210525
  y: 0.0
  z: 0.0
angular:
  x: 0.0
  y: 0.0
  z: 0.0
---
linear:
  x: 0.19736842105263153
  y: 0.0
  z: 0.0
angular:
  x: 0.0
  y: 0.0
  z: -0.041379310344828
---
linear:
  x: 0.19736842105263153
  y: 0.0
  z: 0.0
angular:
  x: 0.0
  y: 0.0
  z: -0.041379310344828
---
linear:
  x: 0.18421052631578944
  y: 0.0
  z: 0.0
angular:
  x: 0.0
  y: 0.0
  z: -0.041379310344828
---
linear:
  x: 0.15789473684210525
  y: 0.0
  z: 0.0
angular:
  x: 0.0
  y: 0.0
  z: -0.041379310344828
---
linear:
  x: 0.19736842105263153
  y: 0.0
  z: 0.0
angular:
  x: 0.0
  y: 0.0
  z: -0.041379310344828
---
linear:
  x: 0.19736842105263153
  y: 0.0
  z: 0.0
angular:
  x: 0.0
  y: 0.0
  z: -0.041379310344828
---
linear:
  x: 0.19736842105263153
  y: 0.0
  z: 0.0
angular:
  x: 0.0
  y: 0.0
  z: -0.041379310344828
---
linear:
  x: 0.17105263157894735
  y: 0.0
  z: 0.0
angular:
  x: 0.0
  y: 0.0
  z: -0.041379310344828
---
linear:
  x: 0.15789473684210525
  y: 0.0
  z: 0.0
angular:
  x: 0.0
  y: 0.0
  z: -0.041379310344828
---
linear:
  x: 0.15789473684210525
  y: 0.0
  z: 0.0
angular:
  x: 0.0
  y: 0.0
  z: -0.041379310344828
---
linear:
  x: 0.15789473684210525
  y: 0.0
  z: 0.0
angular:
  x: 0.0
  y: 0.0
  z: -0.041379310344828
---
linear:
  x: 0.17105263157894735
  y: 0.0
  z: 0.0
angular:
  x: 0.0
  y: 0.0
  z: -0.041379310344828
---
linear:
  x: 0.17105263157894735
  y: 0.0
  z: 0.0
angular:
  x: 0.0
  y: 0.0
  z: -0.041379310344828
---
linear:
  x: 0.18421052631578944
  y: 0.0
  z: 0.0
angular:
  x: 0.0
  y: 0.0
  z: -0.041379310344828
---
linear:
  x: 0.17105263157894735
  y: 0.0
  z: 0.0
angular:
  x: 0.0
  y: 0.0
  z: -0.041379310344828
---
linear:
  x: 0.18421052631578944
  y: 0.0
  z: 0.0
angular:
  x: 0.0
  y: 0.0
  z: -0.041379310344828
---
linear:
  x: 0.17105263157894735
  y: 0.0
  z: 0.0
angular:
  x: 0.0
  y: 0.0
  z: -0.041379310344828
---
linear:
  x: 0.14473684210526316
  y: 0.0
  z: 0.0
angular:
  x: 0.0
  y: 0.0
  z: -0.041379310344828
---
linear:
  x: 0.18421052631578944
  y: 0.0
  z: 0.0
angular:
  x: 0.0
  y: 0.0
  z: 0.12413793103448234
---
linear:
  x: 0.18421052631578944
  y: 0.0
  z: 0.0
angular:
  x: 0.0
  y: 0.0
  z: 0.12413793103448234
---
linear:
  x: 0.15789473684210525
  y: 0.0
  z: 0.0
angular:
  x: 0.0
  y: 0.0
  z: 0.12413793103448234
---
linear:
  x: 0.15789473684210525
  y: 0.0
  z: 0.0
angular:
  x: 0.0
  y: 0.0
  z: 0.12413793103448234
---
linear:
  x: 0.15789473684210525
  y: 0.0
  z: 0.0
angular:
  x: 0.0
  y: 0.0
  z: 0.12413793103448234
---
linear:
  x: 0.17105263157894735
  y: 0.0
  z: 0.0
angular:
  x: 0.0
  y: 0.0
  z: 0.04137931034482717
---
linear:
  x: 0.19736842105263153
  y: 0.0
  z: 0.0
angular:
  x: 0.0
  y: 0.0
  z: 0.12413793103448234
---
linear:
  x: 0.19736842105263153
  y: 0.0
  z: 0.0
angular:
  x: 0.0
  y: 0.0
  z: 0.12413793103448234
---
linear:
  x: 0.18421052631578944
  y: 0.0
  z: 0.0
angular:
  x: 0.0
  y: 0.0
  z: 0.12413793103448234
---
linear:
  x: 0.17105263157894735
  y: 0.0
  z: 0.0
angular:
  x: 0.0
  y: 0.0
  z: 0.12413793103448234
---
linear:
  x: 0.17105263157894735
  y: 0.0
  z: 0.0
angular:
  x: 0.0
  y: 0.0
  z: 0.12413793103448234
---
linear:
  x: 0.19736842105263153
  y: 0.0
  z: 0.0
angular:
  x: 0.0
  y: 0.0
  z: 0.04137931034482717
---
linear:
  x: 0.17105263157894735
  y: 0.0
  z: 0.0
angular:
  x: 0.0
  y: 0.0
  z: 0.04137931034482717
---
linear:
  x: 0.17105263157894735
  y: 0.0
  z: 0.0
angular:
  x: 0.0
  y: 0.0
  z: 0.04137931034482717
---
linear:
  x: 0.17105263157894735
  y: 0.0
  z: 0.0
angular:
  x: 0.0
  y: 0.0
  z: -0.041379310344828
---
linear:
  x: 0.14473684210526316
  y: 0.0
  z: 0.0
angular:
  x: 0.0
  y: 0.0
  z: -0.041379310344828
---
linear:
  x: 0.14473684210526316
  y: 0.0
  z: 0.0
angular:
  x: 0.0
  y: 0.0
  z: -0.041379310344828
---
linear:
  x: 0.14473684210526316
  y: 0.0
  z: 0.0
angular:
  x: 0.0
  y: 0.0
  z: -0.041379310344828
---
linear:
  x: 0.17105263157894735
  y: 0.0
  z: 0.0
angular:
  x: 0.0
  y: 0.0
  z: 0.04137931034482717
---
linear:
  x: 0.15789473684210525
  y: 0.0
  z: 0.0
angular:
  x: 0.0
  y: 0.0
  z: 0.04137931034482717
---
linear:
  x: 0.15789473684210525
  y: 0.0
  z: 0.0
angular:
  x: 0.0
  y: 0.0
  z: 0.04137931034482717
---
linear:
  x: 0.18421052631578944
  y: 0.0
  z: 0.0
angular:
  x: 0.0
  y: 0.0
  z: 0.0
---
linear:
  x: 0.15789473684210525
  y: 0.0
  z: 0.0
angular:
  x: 0.0
  y: 0.0
  z: 0.0
---
linear:
  x: 0.15789473684210525
  y: 0.0
  z: 0.0
angular:
  x: 0.0
  y: 0.0
  z: 0.0
---
linear:
  x: 0.15789473684210525
  y: 0.0
  z: 0.0
angular:
  x: 0.0
  y: 0.0
  z: 0.04137931034482717
---
linear:
  x: 0.19736842105263153
  y: 0.0
  z: 0.0
angular:
  x: 0.0
  y: 0.0
  z: 0.0
---
linear:
  x: 0.19736842105263153
  y: 0.0
  z: 0.0
angular:
  x: 0.0
  y: 0.0
  z: 0.0
---
linear:
  x: 0.0
  y: 0.0
  z: 0.0
angular:
  x: 0.0
  y: 0.0
  z: 0.12413793103448234
---
linear:
  x: 0.0
  y: 0.0
  z: 0.0
angular:
  x: 0.0
  y: 0.0
  z: 0.12413793103448234
---
linear:
  x: 0.0
  y: 0.0
  z: 0.0
angular:
  x: 0.0
  y: 0.0
  z: 0.2896551724137927
---
linear:
  x: 0.0
  y: 0.0
  z: 0.0
angular:
  x: 0.0
  y: 0.0
  z: 0.0
---
linear:
  x: 0.0
  y: 0.0
  z: 0.0
angular:
  x: 0.0
  y: 0.0
  z: -1.2
---
linear:
  x: 0.0
  y: 0.0
  z: 0.0
angular:
  x: 0.0
  y: 0.0
  z: -1.2
---
linear:
  x: 0.0
  y: 0.0
  z: 0.0
angular:
  x: 0.0
  y: 0.0
  z: -1.2
---
linear:
  x: 0.0
  y: 0.0
  z: 0.0
angular:
  x: 0.0
  y: 0.0
  z: -1.2
---
linear:
  x: 0.0
  y: 0.0
  z: 0.0
angular:
  x: 0.0
  y: 0.0
  z: -1.2
---
linear:
  x: 0.0
  y: 0.0
  z: 0.0
angular:
  x: 0.0
  y: 0.0
  z: -1.2
---
linear:
  x: 0.0
  y: 0.0
  z: 0.0
angular:
  x: 0.0
  y: 0.0
  z: -1.2
---
linear:
  x: 0.0
  y: 0.0
  z: 0.0
angular:
  x: 0.0
  y: 0.0
  z: -1.2
---
linear:
  x: 0.0
  y: 0.0
  z: 0.0
angular:
  x: 0.0
  y: 0.0
  z: -0.8689655172413795
---
linear:
  x: 0.0
  y: 0.0
  z: 0.0
angular:
  x: 0.0
  y: 0.0
  z: -0.7034482758620693
---
linear:
  x: 0.0
  y: 0.0
  z: 0.0
angular:
  x: 0.0
  y: 0.0
  z: -0.7034482758620693
---
linear:
  x: 0.0
  y: 0.0
  z: 0.0
angular:
  x: 0.0
  y: 0.0
  z: -1.2
---
linear:
  x: 0.0
  y: 0.0
  z: 0.0
angular:
  x: 0.0
  y: 0.0
  z: -1.2
---
linear:
  x: 0.0
  y: 0.0
  z: 0.0
angular:
  x: 0.0
  y: 0.0
  z: -1.2
---
linear:
  x: 0.0
  y: 0.0
  z: 0.0
angular:
  x: 0.0
  y: 0.0
  z: -1.2
---
linear:
  x: 0.0
  y: 0.0
  z: 0.0
angular:
  x: 0.0
  y: 0.0
  z: -1.2
---
linear:
  x: 0.0
  y: 0.0
  z: 0.0
angular:
  x: 0.0
  y: 0.0
  z: -1.2
---
linear:
  x: 0.0
  y: 0.0
  z: 0.0
angular:
  x: 0.0
  y: 0.0
  z: -1.2
---
linear:
  x: 0.0
  y: 0.0
  z: 0.0
angular:
  x: 0.0
  y: 0.0
  z: -1.2
---
linear:
  x: 0.0
  y: 0.0
  z: 0.0
angular:
  x: 0.0
  y: 0.0
  z: -1.2
---
linear:
  x: 0.09210526315789473
  y: 0.0
  z: 0.0
angular:
  x: 0.0
  y: 0.0
  z: -1.2
---
linear:
  x: 0.14473684210526316
  y: 0.0
  z: 0.0
angular:
  x: 0.0
  y: 0.0
  z: -1.2
---
linear:
  x: 0.19736842105263153
  y: 0.0
  z: 0.0
angular:
  x: 0.0
  y: 0.0
  z: -1.2
---
linear:
  x: 0.17105263157894735
  y: 0.0
  z: 0.0
angular:
  x: 0.0
  y: 0.0
  z: -1.2
---
linear:
  x: 0.14473684210526316
  y: 0.0
  z: 0.0
angular:
  x: 0.0
  y: 0.0
  z: -1.2
---
linear:
  x: 0.18421052631578944
  y: 0.0
  z: 0.0
angular:
  x: 0.0
  y: 0.0
  z: -1.0344827586206897
---
linear:
  x: 0.17105263157894735
  y: 0.0
  z: 0.0
angular:
  x: 0.0
  y: 0.0
  z: -1.2
---
linear:
  x: 0.15789473684210525
  y: 0.0
  z: 0.0
angular:
  x: 0.0
  y: 0.0
  z: -1.0344827586206897
---
linear:
  x: 0.15789473684210525
  y: 0.0
  z: 0.0
angular:
  x: 0.0
  y: 0.0
  z: -1.0344827586206897
---
linear:
  x: 0.19736842105263153
  y: 0.0
  z: 0.0
angular:
  x: 0.0
  y: 0.0
  z: -0.9517241379310346
---
linear:
  x: 0.18421052631578944
  y: 0.0
  z: 0.0
angular:
  x: 0.0
  y: 0.0
  z: -0.7862068965517244
---
linear:
  x: 0.17105263157894735
  y: 0.0
  z: 0.0
angular:
  x: 0.0
  y: 0.0
  z: -0.6206896551724141
---
linear:
  x: 0.17105263157894735
  y: 0.0
  z: 0.0
angular:
  x: 0.0
  y: 0.0
  z: -0.6206896551724141
---
linear:
  x: 0.19736842105263153
  y: 0.0
  z: 0.0
angular:
  x: 0.0
  y: 0.0
  z: -0.7862068965517244
---
linear:
  x: 0.19736842105263153
  y: 0.0
  z: 0.0
angular:
  x: 0.0
  y: 0.0
  z: -0.7862068965517244
---
linear:
  x: 0.19736842105263153
  y: 0.0
  z: 0.0
angular:
  x: 0.0
  y: 0.0
  z: -0.12413793103448317
---
linear:
  x: 0.19736842105263153
  y: 0.0
  z: 0.0
angular:
  x: 0.0
  y: 0.0
  z: -0.12413793103448317
---
linear:
  x: 0.17105263157894735
  y: 0.0
  z: 0.0
angular:
  x: 0.0
  y: 0.0
  z: -0.20689655172413834
---
linear:
  x: 0.15789473684210525
  y: 0.0
  z: 0.0
angular:
  x: 0.0
  y: 0.0
  z: -0.20689655172413834
---
linear:
  x: 0.18421052631578944
  y: 0.0
  z: 0.0
angular:
  x: 0.0
  y: 0.0
  z: 0.0
---
linear:
  x: 0.15789473684210525
  y: 0.0
  z: 0.0
angular:
  x: 0.0
  y: 0.0
  z: 0.04137931034482717
---
linear:
  x: 0.15789473684210525
  y: 0.0
  z: 0.0
angular:
  x: 0.0
  y: 0.0
  z: 0.04137931034482717
---
linear:
  x: 0.18421052631578944
  y: 0.0
  z: 0.0
angular:
  x: 0.0
  y: 0.0
  z: 0.12413793103448234
---
linear:
  x: 0.15789473684210525
  y: 0.0
  z: 0.0
angular:
  x: 0.0
  y: 0.0
  z: 0.12413793103448234
---
linear:
  x: 0.15789473684210525
  y: 0.0
  z: 0.0
angular:
  x: 0.0
  y: 0.0
  z: 0.12413793103448234
---
linear:
  x: 0.19736842105263153
  y: 0.0
  z: 0.0
angular:
  x: 0.0
  y: 0.0
  z: 0.2068965517241375
---
linear:
  x: 0.15789473684210525
  y: 0.0
  z: 0.0
angular:
  x: 0.0
  y: 0.0
  z: 0.2068965517241375
---
linear:
  x: 0.19736842105263153
  y: 0.0
  z: 0.0
angular:
  x: 0.0
  y: 0.0
  z: 0.2068965517241375
---
linear:
  x: 0.19736842105263153
  y: 0.0
  z: 0.0
angular:
  x: 0.0
  y: 0.0
  z: 0.2068965517241375
---
linear:
  x: 0.18421052631578944
  y: 0.0
  z: 0.0
angular:
  x: 0.0
  y: 0.0
  z: 0.2068965517241375
---
linear:
  x: 0.17105263157894735
  y: 0.0
  z: 0.0
angular:
  x: 0.0
  y: 0.0
  z: 0.2068965517241375
---
linear:
  x: 0.15789473684210525
  y: 0.0
  z: 0.0
angular:
  x: 0.0
  y: 0.0
  z: 0.04137931034482717
---
linear:
  x: 0.19736842105263153
  y: 0.0
  z: 0.0
angular:
  x: 0.0
  y: 0.0
  z: 0.0
---
linear:
  x: 0.18421052631578944
  y: 0.0
  z: 0.0
angular:
  x: 0.0
  y: 0.0
  z: -0.12413793103448317
---
linear:
  x: 0.15789473684210525
  y: 0.0
  z: 0.0
angular:
  x: 0.0
  y: 0.0
  z: -0.041379310344828
---
linear:
  x: 0.19736842105263153
  y: 0.0
  z: 0.0
angular:
  x: 0.0
  y: 0.0
  z: -0.12413793103448317
---
linear:
  x: 0.18421052631578944
  y: 0.0
  z: 0.0
angular:
  x: 0.0
  y: 0.0
  z: -0.12413793103448317
---
linear:
  x: 0.15789473684210525
  y: 0.0
  z: 0.0
angular:
  x: 0.0
  y: 0.0
  z: -0.12413793103448317
---
linear:
  x: 0.19736842105263153
  y: 0.0
  z: 0.0
angular:
  x: 0.0
  y: 0.0
  z: -0.041379310344828
---
linear:
  x: 0.18421052631578944
  y: 0.0
  z: 0.0
angular:
  x: 0.0
  y: 0.0
  z: -0.041379310344828
---
linear:
  x: 0.18421052631578944
  y: 0.0
  z: 0.0
angular:
  x: 0.0
  y: 0.0
  z: -0.041379310344828
---
linear:
  x: 0.15789473684210525
  y: 0.0
  z: 0.0
angular:
  x: 0.0
  y: 0.0
  z: -0.041379310344828
---
linear:
  x: 0.15789473684210525
  y: 0.0
  z: 0.0
angular:
  x: 0.0
  y: 0.0
  z: -0.041379310344828
---
linear:
  x: 0.18421052631578944
  y: 0.0
  z: 0.0
angular:
  x: 0.0
  y: 0.0
  z: -0.041379310344828
---
linear:
  x: 0.17105263157894735
  y: 0.0
  z: 0.0
angular:
  x: 0.0
  y: 0.0
  z: -0.041379310344828
---
linear:
  x: 0.19736842105263153
  y: 0.0
  z: 0.0
angular:
  x: 0.0
  y: 0.0
  z: 0.0
---
linear:
  x: 0.19736842105263153
  y: 0.0
  z: 0.0
angular:
  x: 0.0
  y: 0.0
  z: 0.0
---
linear:
  x: 0.17105263157894735
  y: 0.0
  z: 0.0
angular:
  x: 0.0
  y: 0.0
  z: 0.0
---
linear:
  x: 0.17105263157894735
  y: 0.0
  z: 0.0
angular:
  x: 0.0
  y: 0.0
  z: 0.0
---
linear:
  x: 0.15789473684210525
  y: 0.0
  z: 0.0
angular:
  x: 0.0
  y: 0.0
  z: 0.0
---
linear:
  x: 0.17105263157894735
  y: 0.0
  z: 0.0
angular:
  x: 0.0
  y: 0.0
  z: 0.6206896551724133
---
linear:
  x: 0.19736842105263153
  y: 0.0
  z: 0.0
angular:
  x: 0.0
  y: 0.0
  z: 1.117241379310344
---
linear:
  x: 0.19736842105263153
  y: 0.0
  z: 0.0
angular:
  x: 0.0
  y: 0.0
  z: 1.0344827586206888
---
linear:
  x: 0.19736842105263153
  y: 0.0
  z: 0.0
angular:
  x: 0.0
  y: 0.0
  z: 0.9517241379310337
---
linear:
  x: 0.17105263157894735
  y: 0.0
  z: 0.0
angular:
  x: 0.0
  y: 0.0
  z: 0.7862068965517235
---
linear:
  x: 0.18421052631578944
  y: 0.0
  z: 0.0
angular:
  x: 0.0
  y: 0.0
  z: 1.0344827586206888
---
linear:
  x: 0.18421052631578944
  y: 0.0
  z: 0.0
angular:
  x: 0.0
  y: 0.0
  z: 1.0344827586206888
---
linear:
  x: 0.18421052631578944
  y: 0.0
  z: 0.0
angular:
  x: 0.0
  y: 0.0
  z: 0.455172413793103
---
linear:
  x: 0.19736842105263153
  y: 0.0
  z: 0.0
angular:
  x: 0.0
  y: 0.0
  z: 0.2068965517241375
---
linear:
  x: 0.19736842105263153
  y: 0.0
  z: 0.0
angular:
  x: 0.0
  y: 0.0
  z: 0.2068965517241375
---
linear:
  x: 0.19736842105263153
  y: 0.0
  z: 0.0
angular:
  x: 0.0
  y: 0.0
  z: 0.2068965517241375
---
linear:
  x: 0.19736842105263153
  y: 0.0
  z: 0.0
angular:
  x: 0.0
  y: 0.0
  z: 0.2068965517241375
---
linear:
  x: 0.17105263157894735
  y: 0.0
  z: 0.0
angular:
  x: 0.0
  y: 0.0
  z: 0.12413793103448234
---
linear:
  x: 0.17105263157894735
  y: 0.0
  z: 0.0
angular:
  x: 0.0
  y: 0.0
  z: 0.12413793103448234
---
linear:
  x: 0.17105263157894735
  y: 0.0
  z: 0.0
angular:
  x: 0.0
  y: 0.0
  z: 0.12413793103448234
---
linear:
  x: 0.17105263157894735
  y: 0.0
  z: 0.0
angular:
  x: 0.0
  y: 0.0
  z: 0.12413793103448234
---
linear:
  x: 0.0
  y: 0.0
  z: 0.0
angular:
  x: 0.0
  y: 0.0
  z: 0.0
---
linear:
  x: 0.0
  y: 0.0
  z: 0.0
angular:
  x: 0.0
  y: 0.0
  z: 0.0
---
linear:
  x: 0.0
  y: 0.0
  z: 0.0
angular:
  x: 0.0
  y: 0.0
  z: 0.0
---
linear:
  x: 0.0
  y: 0.0
  z: 0.0
angular:
  x: 0.0
  y: 0.0
  z: 0.0
---
linear:
  x: 0.0
  y: 0.0
  z: 0.0
angular:
  x: 0.0
  y: 0.0
  z: 0.0
---
linear:
  x: 0.0
  y: 0.0
  z: 0.0
angular:
  x: 0.0
  y: 0.0
  z: -1.2
---
linear:
  x: 0.0
  y: 0.0
  z: 0.0
angular:
  x: 0.0
  y: 0.0
  z: -1.2
---
linear:
  x: 0.0
  y: 0.0
  z: 0.0
angular:
  x: 0.0
  y: 0.0
  z: -1.2
---
linear:
  x: 0.0
  y: 0.0
  z: 0.0
angular:
  x: 0.0
  y: 0.0
  z: -1.2
---
linear:
  x: 0.0
  y: 0.0
  z: 0.0
angular:
  x: 0.0
  y: 0.0
  z: -1.2
---
linear:
  x: 0.0
  y: 0.0
  z: 0.0
angular:
  x: 0.0
  y: 0.0
  z: -1.2
---
linear:
  x: 0.0
  y: 0.0
  z: 0.0
angular:
  x: 0.0
  y: 0.0
  z: -1.2
---
linear:
  x: 0.0
  y: 0.0
  z: 0.0
angular:
  x: 0.0
  y: 0.0
  z: -1.2
---
linear:
  x: 0.0
  y: 0.0
  z: 0.0
angular:
  x: 0.0
  y: 0.0
  z: -1.2
---
linear:
  x: 0.0
  y: 0.0
  z: 0.0
angular:
  x: 0.0
  y: 0.0
  z: -1.2
---
linear:
  x: 0.0
  y: 0.0
  z: 0.0
angular:
  x: 0.0
  y: 0.0
  z: -1.2
---
linear:
  x: 0.0
  y: 0.0
  z: 0.0
angular:
  x: 0.0
  y: 0.0
  z: -1.2
---
linear:
  x: 0.039473684210526314
  y: 0.0
  z: 0.0
angular:
  x: 0.0
  y: 0.0
  z: -1.2
---
linear:
  x: 0.19736842105263153
  y: 0.0
  z: 0.0
angular:
  x: 0.0
  y: 0.0
  z: -1.2
---
linear:
  x: 0.15789473684210525
  y: 0.0
  z: 0.0
angular:
  x: 0.0
  y: 0.0
  z: -1.2
---
linear:
  x: 0.15789473684210525
  y: 0.0
  z: 0.0
angular:
  x: 0.0
  y: 0.0
  z: -1.2
---
linear:
  x: 0.19736842105263153
  y: 0.0
  z: 0.0
angular:
  x: 0.0
  y: 0.0
  z: -1.2
---
linear:
  x: 0.19736842105263153
  y: 0.0
  z: 0.0
angular:
  x: 0.0
  y: 0.0
  z: -1.2
---
linear:
  x: 0.14473684210526316
  y: 0.0
  z: 0.0
angular:
  x: 0.0
  y: 0.0
  z: -1.2
---
linear:
  x: 0.19736842105263153
  y: 0.0
  z: 0.0
angular:
  x: 0.0
  y: 0.0
  z: -1.2
---
linear:
  x: 0.0
  y: 0.0
  z: 0.0
angular:
  x: 0.0
  y: 0.0
  z: 0.0
---
linear:
  x: 0.0
  y: 0.0
  z: 0.0
angular:
  x: 0.0
  y: 0.0
  z: 0.0
---
linear:
  x: 0.15789473684210525
  y: 0.0
  z: 0.0
angular:
  x: 0.0
  y: 0.0
  z: -0.9517241379310346
---
linear:
  x: 0.15789473684210525
  y: 0.0
  z: 0.0
angular:
  x: 0.0
  y: 0.0
  z: -0.9517241379310346
---
linear:
  x: 0.14473684210526316
  y: 0.0
  z: 0.0
angular:
  x: 0.0
  y: 0.0
  z: -0.7862068965517244
---
linear:
  x: 0.14473684210526316
  y: 0.0
  z: 0.0
angular:
  x: 0.0
  y: 0.0
  z: -0.7862068965517244
---
linear:
  x: 0.14473684210526316
  y: 0.0
  z: 0.0
angular:
  x: 0.0
  y: 0.0
  z: -0.7034482758620693
---
linear:
  x: 0.14473684210526316
  y: 0.0
  z: 0.0
angular:
  x: 0.0
  y: 0.0
  z: -0.7034482758620693
---
linear:
  x: 0.13157894736842105
  y: 0.0
  z: 0.0
angular:
  x: 0.0
  y: 0.0
  z: -0.6206896551724141
---
linear:
  x: 0.10526315789473684
  y: 0.0
  z: 0.0
angular:
  x: 0.0
  y: 0.0
  z: -0.20689655172413834
---
linear:
  x: 0.07894736842105263
  y: 0.0
  z: 0.0
angular:
  x: 0.0
  y: 0.0
  z: -0.20689655172413834
---
linear:
  x: 0.06578947368421052
  y: 0.0
  z: 0.0
angular:
  x: 0.0
  y: 0.0
  z: -0.041379310344828
---
linear:
  x: 0.06578947368421052
  y: 0.0
  z: 0.0
angular:
  x: 0.0
  y: 0.0
  z: -0.12413793103448317
---
linear:
  x: 0.06578947368421052
  y: 0.0
  z: 0.0
angular:
  x: 0.0
  y: 0.0
  z: -0.12413793103448317
---
linear:
  x: 0.05263157894736842
  y: 0.0
  z: 0.0
angular:
  x: 0.0
  y: 0.0
  z: 0.12413793103448234
---
linear:
  x: 0.05263157894736842
  y: 0.0
  z: 0.0
angular:
  x: 0.0
  y: 0.0
  z: 0.12413793103448234
---
linear:
  x: 0.05263157894736842
  y: 0.0
  z: 0.0
angular:
  x: 0.0
  y: 0.0
  z: 0.12413793103448234
---
linear:
  x: 0.05263157894736842
  y: 0.0
  z: 0.0
angular:
  x: 0.0
  y: 0.0
  z: -0.041379310344828
---
linear:
  x: 0.039473684210526314
  y: 0.0
  z: 0.0
angular:
  x: 0.0
  y: 0.0
  z: 0.12413793103448234
---
linear:
  x: 0.039473684210526314
  y: 0.0
  z: 0.0
angular:
  x: 0.0
  y: 0.0
  z: 0.2068965517241375
---
linear:
  x: 0.039473684210526314
  y: 0.0
  z: 0.0
angular:
  x: 0.0
  y: 0.0
  z: -0.041379310344828
---
linear:
  x: 0.039473684210526314
  y: 0.0
  z: 0.0
angular:
  x: 0.0
  y: 0.0
  z: -0.041379310344828
---
linear:
  x: 0.039473684210526314
  y: 0.0
  z: 0.0
angular:
  x: 0.0
  y: 0.0
  z: -0.12413793103448317
---
linear:
  x: 0.039473684210526314
  y: 0.0
  z: 0.0
angular:
  x: 0.0
  y: 0.0
  z: -0.12413793103448317
---
linear:
  x: 0.039473684210526314
  y: 0.0
  z: 0.0
angular:
  x: 0.0
  y: 0.0
  z: -0.12413793103448317
---
linear:
  x: 0.039473684210526314
  y: 0.0
  z: 0.0
angular:
  x: 0.0
  y: 0.0
  z: -0.12413793103448317
---
linear:
  x: 0.039473684210526314
  y: 0.0
  z: 0.0
angular:
  x: 0.0
  y: 0.0
  z: -0.12413793103448317
---
linear:
  x: 0.039473684210526314
  y: 0.0
  z: 0.0
angular:
  x: 0.0
  y: 0.0
  z: -0.12413793103448317
---
linear:
  x: 0.039473684210526314
  y: 0.0
  z: 0.0
angular:
  x: 0.0
  y: 0.0
  z: -0.12413793103448317
---
linear:
  x: 0.039473684210526314
  y: 0.0
  z: 0.0
angular:
  x: 0.0
  y: 0.0
  z: -0.12413793103448317
---
linear:
  x: 0.039473684210526314
  y: 0.0
  z: 0.0
angular:
  x: 0.0
  y: 0.0
  z: -0.12413793103448317
---
linear:
  x: 0.039473684210526314
  y: 0.0
  z: 0.0
angular:
  x: 0.0
  y: 0.0
  z: -0.12413793103448317
---
linear:
  x: 0.039473684210526314
  y: 0.0
  z: 0.0
angular:
  x: 0.0
  y: 0.0
  z: -0.12413793103448317
---
linear:
  x: 0.039473684210526314
  y: 0.0
  z: 0.0
angular:
  x: 0.0
  y: 0.0
  z: -0.20689655172413834
---
linear:
  x: 0.039473684210526314
  y: 0.0
  z: 0.0
angular:
  x: 0.0
  y: 0.0
  z: -0.20689655172413834
---
linear:
  x: 0.039473684210526314
  y: 0.0
  z: 0.0
angular:
  x: 0.0
  y: 0.0
  z: -0.20689655172413834
---
linear:
  x: 0.039473684210526314
  y: 0.0
  z: 0.0
angular:
  x: 0.0
  y: 0.0
  z: -0.20689655172413834
---
linear:
  x: 0.039473684210526314
  y: 0.0
  z: 0.0
angular:
  x: 0.0
  y: 0.0
  z: -0.20689655172413834
---
linear:
  x: 0.039473684210526314
  y: 0.0
  z: 0.0
angular:
  x: 0.0
  y: 0.0
  z: -0.20689655172413834
---
linear:
  x: 0.039473684210526314
  y: 0.0
  z: 0.0
angular:
  x: 0.0
  y: 0.0
  z: -0.20689655172413834
---
linear:
  x: 0.039473684210526314
  y: 0.0
  z: 0.0
angular:
  x: 0.0
  y: 0.0
  z: -0.20689655172413834
---
linear:
  x: 0.039473684210526314
  y: 0.0
  z: 0.0
angular:
  x: 0.0
  y: 0.0
  z: -0.20689655172413834
---
linear:
  x: 0.039473684210526314
  y: 0.0
  z: 0.0
angular:
  x: 0.0
  y: 0.0
  z: -0.20689655172413834
---
linear:
  x: 0.039473684210526314
  y: 0.0
  z: 0.0
angular:
  x: 0.0
  y: 0.0
  z: -0.20689655172413834
---
linear:
  x: 0.039473684210526314
  y: 0.0
  z: 0.0
angular:
  x: 0.0
  y: 0.0
  z: -0.20689655172413834
---
linear:
  x: 0.039473684210526314
  y: 0.0
  z: 0.0
angular:
  x: 0.0
  y: 0.0
  z: -0.20689655172413834
---
linear:
  x: 0.039473684210526314
  y: 0.0
  z: 0.0
angular:
  x: 0.0
  y: 0.0
  z: -0.20689655172413834
---
linear:
  x: 0.039473684210526314
  y: 0.0
  z: 0.0
angular:
  x: 0.0
  y: 0.0
  z: -0.20689655172413834
---
linear:
  x: 0.039473684210526314
  y: 0.0
  z: 0.0
angular:
  x: 0.0
  y: 0.0
  z: -0.20689655172413834
---
linear:
  x: 0.039473684210526314
  y: 0.0
  z: 0.0
angular:
  x: 0.0
  y: 0.0
  z: -0.20689655172413834
---
linear:
  x: 0.039473684210526314
  y: 0.0
  z: 0.0
angular:
  x: 0.0
  y: 0.0
  z: -0.20689655172413834
---
linear:
  x: 0.039473684210526314
  y: 0.0
  z: 0.0
angular:
  x: 0.0
  y: 0.0
  z: -0.20689655172413834
---
linear:
  x: 0.039473684210526314
  y: 0.0
  z: 0.0
angular:
  x: 0.0
  y: 0.0
  z: -0.20689655172413834
---
linear:
  x: 0.039473684210526314
  y: 0.0
  z: 0.0
angular:
  x: 0.0
  y: 0.0
  z: -0.20689655172413834
---
linear:
  x: 0.039473684210526314
  y: 0.0
  z: 0.0
angular:
  x: 0.0
  y: 0.0
  z: -0.20689655172413834
---
linear:
  x: 0.039473684210526314
  y: 0.0
  z: 0.0
angular:
  x: 0.0
  y: 0.0
  z: -0.20689655172413834
---
linear:
  x: 0.039473684210526314
  y: 0.0
  z: 0.0
angular:
  x: 0.0
  y: 0.0
  z: -0.20689655172413834
---
linear:
  x: 0.039473684210526314
  y: 0.0
  z: 0.0
angular:
  x: 0.0
  y: 0.0
  z: -0.20689655172413834
---
linear:
  x: 0.039473684210526314
  y: 0.0
  z: 0.0
angular:
  x: 0.0
  y: 0.0
  z: -0.20689655172413834
---
linear:
  x: 0.039473684210526314
  y: 0.0
  z: 0.0
angular:
  x: 0.0
  y: 0.0
  z: -0.20689655172413834
---
linear:
  x: 0.039473684210526314
  y: 0.0
  z: 0.0
angular:
  x: 0.0
  y: 0.0
  z: -0.20689655172413834
---
linear:
  x: 0.039473684210526314
  y: 0.0
  z: 0.0
angular:
  x: 0.0
  y: 0.0
  z: -0.20689655172413834
---
linear:
  x: 0.039473684210526314
  y: 0.0
  z: 0.0
angular:
  x: 0.0
  y: 0.0
  z: -0.20689655172413834
---
linear:
  x: 0.039473684210526314
  y: 0.0
  z: 0.0
angular:
  x: 0.0
  y: 0.0
  z: -0.20689655172413834
---
linear:
  x: 0.039473684210526314
  y: 0.0
  z: 0.0
angular:
  x: 0.0
  y: 0.0
  z: -0.20689655172413834
---
linear:
  x: 0.039473684210526314
  y: 0.0
  z: 0.0
angular:
  x: 0.0
  y: 0.0
  z: -0.20689655172413834
---
linear:
  x: 0.039473684210526314
  y: 0.0
  z: 0.0
angular:
  x: 0.0
  y: 0.0
  z: -0.20689655172413834
---
linear:
  x: 0.039473684210526314
  y: 0.0
  z: 0.0
angular:
  x: 0.0
  y: 0.0
  z: -0.20689655172413834
---
linear:
  x: 0.039473684210526314
  y: 0.0
  z: 0.0
angular:
  x: 0.0
  y: 0.0
  z: -0.20689655172413834
---
linear:
  x: 0.039473684210526314
  y: 0.0
  z: 0.0
angular:
  x: 0.0
  y: 0.0
  z: -0.20689655172413834
---
linear:
  x: 0.039473684210526314
  y: 0.0
  z: 0.0
angular:
  x: 0.0
  y: 0.0
  z: -0.20689655172413834
---
linear:
  x: 0.039473684210526314
  y: 0.0
  z: 0.0
angular:
  x: 0.0
  y: 0.0
  z: -0.20689655172413834
---
linear:
  x: 0.039473684210526314
  y: 0.0
  z: 0.0
angular:
  x: 0.0
  y: 0.0
  z: -0.20689655172413834
---
linear:
  x: 0.039473684210526314
  y: 0.0
  z: 0.0
angular:
  x: 0.0
  y: 0.0
  z: -0.20689655172413834
---
linear:
  x: 0.039473684210526314
  y: 0.0
  z: 0.0
angular:
  x: 0.0
  y: 0.0
  z: -0.20689655172413834
---
linear:
  x: 0.039473684210526314
  y: 0.0
  z: 0.0
angular:
  x: 0.0
  y: 0.0
  z: -0.20689655172413834
---
linear:
  x: 0.039473684210526314
  y: 0.0
  z: 0.0
angular:
  x: 0.0
  y: 0.0
  z: -0.20689655172413834
---
linear:
  x: 0.039473684210526314
  y: 0.0
  z: 0.0
angular:
  x: 0.0
  y: 0.0
  z: -0.20689655172413834
---
linear:
  x: 0.039473684210526314
  y: 0.0
  z: 0.0
angular:
  x: 0.0
  y: 0.0
  z: -0.20689655172413834
---
linear:
  x: 0.039473684210526314
  y: 0.0
  z: 0.0
angular:
  x: 0.0
  y: 0.0
  z: -0.20689655172413834
---
linear:
  x: 0.039473684210526314
  y: 0.0
  z: 0.0
angular:
  x: 0.0
  y: 0.0
  z: -0.20689655172413834
---
linear:
  x: 0.039473684210526314
  y: 0.0
  z: 0.0
angular:
  x: 0.0
  y: 0.0
  z: -0.20689655172413834
---
linear:
  x: 0.039473684210526314
  y: 0.0
  z: 0.0
angular:
  x: 0.0
  y: 0.0
  z: -0.20689655172413834
---
linear:
  x: 0.039473684210526314
  y: 0.0
  z: 0.0
angular:
  x: 0.0
  y: 0.0
  z: -0.20689655172413834
---
linear:
  x: 0.039473684210526314
  y: 0.0
  z: 0.0
angular:
  x: 0.0
  y: 0.0
  z: -0.20689655172413834
---
linear:
  x: 0.039473684210526314
  y: 0.0
  z: 0.0
angular:
  x: 0.0
  y: 0.0
  z: -0.20689655172413834
---
linear:
  x: 0.039473684210526314
  y: 0.0
  z: 0.0
angular:
  x: 0.0
  y: 0.0
  z: -0.20689655172413834
---
linear:
  x: 0.039473684210526314
  y: 0.0
  z: 0.0
angular:
  x: 0.0
  y: 0.0
  z: -0.20689655172413834
---
linear:
  x: 0.039473684210526314
  y: 0.0
  z: 0.0
angular:
  x: 0.0
  y: 0.0
  z: -0.20689655172413834
---
linear:
  x: 0.039473684210526314
  y: 0.0
  z: 0.0
angular:
  x: 0.0
  y: 0.0
  z: -0.20689655172413834
---
linear:
  x: 0.039473684210526314
  y: 0.0
  z: 0.0
angular:
  x: 0.0
  y: 0.0
  z: -0.20689655172413834
---
linear:
  x: 0.039473684210526314
  y: 0.0
  z: 0.0
angular:
  x: 0.0
  y: 0.0
  z: -0.20689655172413834
---
linear:
  x: 0.039473684210526314
  y: 0.0
  z: 0.0
angular:
  x: 0.0
  y: 0.0
  z: -0.20689655172413834
---
linear:
  x: 0.039473684210526314
  y: 0.0
  z: 0.0
angular:
  x: 0.0
  y: 0.0
  z: -0.20689655172413834
---
linear:
  x: 0.039473684210526314
  y: 0.0
  z: 0.0
angular:
  x: 0.0
  y: 0.0
  z: -0.20689655172413834
---
linear:
  x: 0.039473684210526314
  y: 0.0
  z: 0.0
angular:
  x: 0.0
  y: 0.0
  z: -0.20689655172413834
---
linear:
  x: 0.039473684210526314
  y: 0.0
  z: 0.0
angular:
  x: 0.0
  y: 0.0
  z: -0.20689655172413834
---
linear:
  x: 0.039473684210526314
  y: 0.0
  z: 0.0
angular:
  x: 0.0
  y: 0.0
  z: -0.20689655172413834
---
linear:
  x: 0.039473684210526314
  y: 0.0
  z: 0.0
angular:
  x: 0.0
  y: 0.0
  z: -0.20689655172413834
---
linear:
  x: 0.0
  y: 0.0
  z: 0.0
angular:
  x: 0.0
  y: 0.0
  z: 0.0
---
